,index,City,Latitude,Longitude,Max Temperature (F),Humidity (%),Cloudiness (%),Wind Speed (mph),Country,Date
0,0,Punta Arenas,-53.15,-70.9167,59.0,41,40,21.85,CL,02/06/21 13:10
1,1,Richards Bay,-28.783,32.0377,75.31,80,25,8.16,ZA,02/06/21 13:18
2,2,Qaanaaq,77.484,-69.3632,12.22,88,100,8.16,GL,02/06/21 13:16
3,3,Mar del Plata,-38.0023,-57.5575,69.8,64,75,14.97,AR,02/06/21 13:16
4,4,Rikitea,-23.1203,-134.9692,77.65,74,100,12.37,PF,02/06/21 13:15
5,5,Cape Town,-33.9258,18.4232,73.99,68,75,14.97,ZA,02/06/21 13:12
6,6,Tezu,27.9167,96.1667,61.43,31,21,4.03,IN,02/06/21 13:18
7,7,New Norfolk,-42.7826,147.0587,57.99,78,26,1.99,AU,02/06/21 13:16
8,8,Busselton,-33.65,115.3333,59.0,95,100,1.99,AU,02/06/21 13:15
9,9,Bogovarovo,58.9785,47.0246,-5.98,90,100,10.04,RU,02/06/21 13:15
10,10,Albany,42.6001,-73.9662,37.0,59,75,12.66,US,02/06/21 13:11
11,11,Severo-Kuril'sk,50.6789,156.125,20.48,94,100,15.55,RU,02/06/21 13:15
12,12,Ushuaia,-54.8,-68.3,53.6,62,20,23.02,AR,02/06/21 13:15
13,13,Bluff,-46.6,168.3333,53.35,86,23,4.5,NZ,02/06/21 13:15
14,14,Pitimbu,-7.4706,-34.8086,87.8,58,20,10.36,BR,02/06/21 13:16
15,15,Nola,40.922,14.5329,60.01,55,29,3.06,IT,02/06/21 13:18
16,16,Sakakah,29.9697,40.2064,53.6,62,0,12.66,SA,02/06/21 13:18
17,17,Great Yarmouth,52.6083,1.7305,39.2,93,90,17.27,GB,02/06/21 13:18
18,18,Cairns,-16.9167,145.7667,78.8,89,90,1.14,AU,02/06/21 13:14
19,19,Sistranda,63.7256,8.834,23.0,86,75,13.8,NO,02/06/21 13:18
20,20,Alekseyevka,50.6309,38.6903,14.18,90,100,14.38,RU,02/06/21 13:18
21,21,Umm Kaddadah,13.6017,26.6876,64.85,27,0,12.5,SD,02/06/21 13:18
22,22,Hermanus,-34.4187,19.2345,71.01,83,33,1.99,ZA,02/06/21 13:15
23,23,Nikolskoye,59.7035,30.7861,10.4,79,75,15.66,RU,02/06/21 13:16
24,24,Hualmay,-11.0964,-77.6139,75.0,66,90,9.04,PE,02/06/21 13:18
25,25,Bredasdorp,-34.5322,20.0403,69.8,78,27,9.22,ZA,02/06/21 13:14
26,26,Beringovskiy,63.05,179.3167,-8.25,88,1,8.43,RU,02/06/21 13:15
27,27,Torbay,47.6666,-52.7314,36.0,87,90,11.5,CA,02/06/21 13:14
28,28,Khatanga,71.9667,102.5,-36.65,77,0,6.96,RU,02/06/21 13:14
29,29,La Ronge,55.1001,-105.2842,-25.6,62,6,6.91,CA,02/06/21 13:14
30,30,Bambous Virieux,-20.3428,57.7575,80.01,83,40,6.91,MU,02/06/21 13:15
31,31,Williston,48.147,-103.618,-9.99,63,0,1.99,US,02/06/21 13:13
32,32,Wagar,16.1525,36.2032,67.68,28,0,11.03,SD,02/06/21 13:18
33,33,Ovsyanka,55.9575,92.5519,26.6,68,0,6.71,RU,02/06/21 13:18
34,34,Thamaga,-24.6701,25.5397,68.0,100,90,1.14,BW,02/06/21 13:18
35,35,Atar,20.5169,-13.0499,73.4,13,35,17.27,MR,02/06/21 13:15
36,36,Qaqortoq,60.7167,-46.0333,33.8,27,1,18.41,GL,02/06/21 13:18
37,37,Aykhal,66.0,111.5,-33.65,81,3,5.97,RU,02/06/21 13:14
38,38,Birao,10.2849,22.7882,71.89,21,59,7.38,CF,02/06/21 13:16
39,39,Butaritari,3.0707,172.7902,81.01,81,94,21.7,KI,02/06/21 13:15
40,40,Tocopilla,-22.092,-70.1979,73.81,53,7,6.33,CL,02/06/21 13:16
41,41,Faanui,-16.4833,-151.75,81.45,70,0,10.33,PF,02/06/21 13:15
42,42,Nanortalik,60.1432,-45.2371,23.77,79,0,5.28,GL,02/06/21 13:18
43,43,Soe,-9.8607,124.284,66.27,100,94,3.62,ID,02/06/21 13:18
44,44,Acaraú,-2.8856,-40.12,87.06,57,79,16.82,BR,02/06/21 13:18
45,45,Avarua,-21.2078,-159.775,80.6,83,17,5.75,CK,02/06/21 13:15
46,46,Altagracia de Orituco,9.8601,-66.3814,86.29,44,100,9.33,VE,02/06/21 13:18
47,47,San Quintín,30.4833,-115.95,62.24,62,0,3.67,MX,02/06/21 13:18
48,48,Ninghai,29.2892,121.4247,55.99,90,10,1.01,CN,02/06/21 13:18
49,49,Dingle,10.9995,122.6711,74.68,92,77,7.38,PH,02/06/21 13:14
50,50,Burnie,-41.0667,145.9167,61.0,85,79,5.01,AU,02/06/21 13:15
51,51,Beloha,-25.1667,45.05,77.86,81,7,5.68,MG,02/06/21 13:16
52,52,Ribeira Grande,38.5167,-28.7,60.8,88,75,23.02,PT,02/06/21 13:16
53,53,Bengkulu,-3.8004,102.2655,76.55,79,85,4.79,ID,02/06/21 13:14
54,54,Cabo San Lucas,22.8909,-109.9124,78.01,56,1,6.91,MX,02/06/21 13:14
55,55,Kapaa,22.0752,-159.319,60.01,88,1,6.91,US,02/06/21 13:15
56,56,Saint-Philippe,-21.3585,55.7679,79.0,83,75,3.44,RE,02/06/21 13:16
57,57,Leningradskiy,69.3833,178.4167,-12.82,78,61,6.58,RU,02/06/21 13:16
58,58,George Town,5.4112,100.3354,82.0,89,20,3.44,MY,02/06/21 13:15
59,59,Mahébourg,-20.4081,57.7,78.8,83,40,6.91,MU,02/06/21 13:15
60,60,Zhalantun,48.0,122.7167,-4.99,84,0,6.53,CN,02/06/21 13:18
61,61,Mataura,-46.1927,168.8643,48.78,95,2,1.3,NZ,02/06/21 13:15
62,62,Baghmara,23.795,86.2085,60.15,72,68,3.89,IN,02/06/21 13:18
63,63,Vytegra,61.0064,36.4481,5.97,93,100,10.8,RU,02/06/21 13:18
64,64,Hong Kong,22.2855,114.1577,66.0,80,0,3.91,HK,02/06/21 13:15
65,65,Medzev,48.7004,20.8937,30.99,80,90,18.41,SK,02/06/21 13:18
66,66,Keti Bandar,24.1447,67.4497,67.23,55,0,8.84,PK,02/06/21 13:17
67,67,Alofi,-19.0595,-169.9187,75.2,100,100,4.61,NU,02/06/21 13:14
68,68,Mādhogarh,26.276,79.1869,54.79,54,0,5.86,IN,02/06/21 13:18
69,69,Dikson,73.5069,80.5464,-29.36,86,50,10.25,RU,02/06/21 13:16
70,70,Evensk,61.95,159.2333,8.49,88,100,15.5,RU,02/06/21 13:18
71,71,Arlit,18.7369,7.3853,73.54,17,96,6.29,NE,02/06/21 13:18
72,72,Saint Paul Harbor,57.79,-152.4072,28.4,64,1,3.44,US,02/06/21 13:13
73,73,Yellowknife,62.456,-114.3525,-40.0,66,1,3.44,CA,02/06/21 13:11
74,74,Carnarvon,-24.8667,113.6333,80.6,100,5,12.66,AU,02/06/21 13:11
75,75,Inuvik,68.3499,-133.7218,-23.8,76,100,1.14,CA,02/06/21 13:18
76,76,Tuktoyaktuk,69.4541,-133.0374,-16.6,76,90,19.57,CA,02/06/21 13:14
77,77,Roald,62.5833,6.1333,26.6,63,0,16.11,NO,02/06/21 13:16
78,78,Noumea,-22.2763,166.4572,77.0,100,0,2.3,NC,02/06/21 13:14
79,79,Geraldton,-28.7667,114.6,69.8,94,90,23.02,AU,02/06/21 13:18
80,80,Hobart,-42.8794,147.3294,57.99,82,75,4.61,AU,02/06/21 13:13
81,81,Jamestown,42.097,-79.2353,21.2,53,1,20.71,US,02/06/21 13:13
82,82,Maralal,1.0968,36.698,63.5,67,50,5.3,KE,02/06/21 13:18
83,83,Bolobo,-2.1667,16.2333,79.54,65,80,2.04,CD,02/06/21 13:18
84,84,Bonnyville,54.2668,-110.735,-14.8,62,40,3.44,CA,02/06/21 13:18
85,85,Bethel,41.3712,-73.414,39.2,33,40,11.5,US,02/06/21 13:14
86,86,Clyde River,70.4692,-68.5914,-14.8,84,40,4.61,CA,02/06/21 13:15
87,87,Te Anau,-45.4167,167.7167,50.94,86,26,1.14,NZ,02/06/21 13:15
88,88,Ponta Delgada,37.7333,-25.6667,62.01,88,75,16.11,PT,02/06/21 13:15
89,89,Provideniya,64.3833,-173.3,1.67,91,76,4.65,RU,02/06/21 13:16
90,90,Brownsville,25.9018,-97.4975,69.8,78,90,8.05,US,02/06/21 13:18
91,91,Mossamedes,-15.1961,12.1522,72.81,78,30,11.56,AO,02/06/21 13:15
92,92,Itarema,-2.9248,-39.9167,86.99,57,57,15.61,BR,02/06/21 13:16
93,93,Salalah,17.0151,54.0924,75.2,69,40,9.22,OM,02/06/21 13:17
94,94,Gweta,-20.1833,25.2333,82.15,59,87,8.81,BW,02/06/21 13:18
95,95,Port Lincoln,-34.7333,135.8667,60.06,82,66,13.56,AU,02/06/21 13:15
96,96,La Romana,18.4273,-68.9728,87.8,66,40,11.5,DO,02/06/21 13:18
97,97,Hobyo,5.3505,48.5268,77.72,75,1,14.18,SO,02/06/21 13:17
98,98,Caravelas,-17.7125,-39.2481,83.12,76,94,10.6,BR,02/06/21 13:18
99,99,Henties Bay,-22.116,14.2845,64.99,87,15,1.99,NA,02/06/21 13:16
100,100,Port Alfred,-33.5906,26.891,73.0,92,25,9.26,ZA,02/06/21 13:14
101,101,Tuatapere,-46.1333,167.6833,51.69,89,12,3.98,NZ,02/06/21 13:18
102,102,Lebu,-37.6167,-73.65,62.82,77,82,6.55,CL,02/06/21 13:15
103,103,Northam,51.0333,-4.2167,39.99,94,84,1.01,GB,02/06/21 13:18
104,104,Serenje,-13.2325,30.2352,65.68,98,67,4.76,ZM,02/06/21 13:18
105,105,Söderhamn,61.3037,17.0592,19.99,94,95,1.01,SE,02/06/21 13:18
106,106,Kaitangata,-46.2817,169.8464,49.91,93,2,2.91,NZ,02/06/21 13:15
107,107,Florence,43.7667,11.25,55.99,87,0,2.3,IT,02/06/21 13:18
108,108,Arraial do Cabo,-22.9661,-42.0278,77.0,78,75,5.75,BR,02/06/21 13:16
109,109,Lüderitz,-26.6481,15.1594,74.01,50,0,28.81,NA,02/06/21 13:18
110,110,Lorengau,-2.0226,147.2712,81.48,77,56,4.16,PG,02/06/21 13:15
111,111,Saskylakh,71.9167,114.0833,-35.25,81,80,5.3,RU,02/06/21 13:13
112,112,La Rioja,42.25,-2.5,44.6,87,90,9.22,ES,02/06/21 13:18
113,113,Hilo,19.7297,-155.09,64.4,63,1,5.75,US,02/06/21 13:13
114,114,Novozybkov,52.5396,31.9275,3.2,78,0,8.95,RU,02/06/21 13:18
115,115,Makurdi,7.7411,8.5121,91.06,12,0,4.76,NG,02/06/21 13:18
116,116,Puerto Ayora,-0.7393,-90.3518,80.6,78,75,11.5,EC,02/06/21 13:15
117,117,Shingū,33.7333,135.9833,44.89,80,0,6.29,JP,02/06/21 13:18
118,118,Matagami,49.7502,-77.6328,14.0,79,90,11.5,CA,02/06/21 13:18
119,119,Sabha,27.0377,14.4283,68.22,23,53,8.52,LY,02/06/21 13:18
120,120,Touros,-5.1989,-35.4608,87.8,51,40,11.5,BR,02/06/21 13:15
121,121,Castro,-24.7911,-50.0119,76.44,48,0,6.96,BR,02/06/21 13:15
122,122,Vanimo,-2.6741,141.3028,76.98,87,98,5.32,PG,02/06/21 13:18
123,123,Kyra,49.5776,111.9753,-7.87,83,25,3.58,RU,02/06/21 13:18
124,124,Ketchikan,55.3422,-131.6461,35.6,100,90,2.82,US,02/06/21 13:18
125,125,Tres Arroyos,-38.3739,-60.2798,85.14,34,0,10.58,AR,02/06/21 13:18
126,126,Porto Velho,-8.7619,-63.9039,84.2,70,40,5.75,BR,02/06/21 13:14
127,127,Isangel,-19.55,169.2667,77.49,80,0,3.76,VU,02/06/21 13:16
128,128,Kautokeino,69.0125,23.0412,12.63,93,78,6.78,NO,02/06/21 13:16
129,129,Cagliliog,13.9016,123.2913,76.75,89,37,8.79,PH,02/06/21 13:18
130,130,Klaksvík,62.2266,-6.589,33.8,64,20,20.71,FO,02/06/21 13:15
131,131,Bathsheba,13.2167,-59.5167,84.2,54,20,18.41,BB,02/06/21 13:15
132,132,Atuona,-9.8,-139.0333,80.17,77,59,22.73,PF,02/06/21 13:13
133,133,Ancud,-41.8697,-73.8203,77.0,44,0,11.5,CL,02/06/21 13:15
134,134,Ceatalchioi,45.2886,28.7937,35.6,93,90,9.22,RO,02/06/21 13:18
135,135,Elko,41.0002,-115.5012,41.0,52,1,9.22,US,02/06/21 13:18
136,136,Melilla,35.2937,-2.9383,59.0,72,0,4.61,ES,02/06/21 13:18
137,137,Bissau,11.8636,-15.5977,87.8,29,0,11.5,GW,02/06/21 13:18
138,138,Upernavik,72.7868,-56.1549,19.96,80,100,4.99,GL,02/06/21 13:15
139,139,Kentau,43.5206,68.5094,37.33,95,100,8.39,KZ,02/06/21 13:18
140,140,Sitka,57.0531,-135.33,35.6,80,75,9.22,US,02/06/21 13:16
141,141,Singarāyakonda,15.25,80.0333,72.5,70,5,6.85,IN,02/06/21 13:19
142,142,Queimados,-22.7161,-43.5553,75.2,94,90,5.75,BR,02/06/21 13:19
143,143,Coahuayana Viejo,18.7333,-103.6833,75.2,64,1,5.03,MX,02/06/21 13:19
144,144,Itacoatiara,-3.1431,-58.4442,90.93,53,61,2.44,BR,02/06/21 13:19
145,145,Antofagasta,-23.65,-70.4,73.99,56,20,13.8,CL,02/06/21 13:17
146,146,Hamilton,39.1834,-84.5333,33.01,40,1,3.44,US,02/06/21 13:17
147,147,Yerbogachën,61.2767,108.0108,-13.07,90,87,3.27,RU,02/06/21 13:15
148,148,Billings Metropolitan Area,45.7833,-108.5007,8.01,85,90,6.91,US,02/06/21 13:10
149,149,Shebunino,46.4339,141.8603,10.69,87,87,6.31,RU,02/06/21 13:19
150,150,Belfast,54.5833,-5.9333,42.01,75,75,17.27,GB,02/06/21 13:14
151,151,Alto Araguaia,-17.3147,-53.2153,82.49,64,56,11.23,BR,02/06/21 13:15
152,152,Eureka,40.8021,-124.1637,48.99,83,0,1.01,US,02/06/21 13:19
153,153,Kholodnyy,62.7167,147.95,-27.65,82,38,1.16,RU,02/06/21 13:19
154,154,Merke,42.8728,73.1786,46.11,52,100,9.13,KZ,02/06/21 13:19
155,155,Ilulissat,69.2167,-51.1,21.2,38,40,20.71,GL,02/06/21 13:16
156,156,Vaini,-21.2,-175.2,75.2,88,75,5.75,TO,02/06/21 13:13
157,157,Okhotsk,59.3833,143.3,2.64,91,100,10.54,RU,02/06/21 13:19
158,158,Ostrovnoy,68.0531,39.5131,11.08,93,100,9.73,RU,02/06/21 13:16
159,159,Kavieng,-2.5744,150.7967,81.64,71,92,1.83,PG,02/06/21 13:16
160,160,Muros,42.7762,-9.0603,50.0,68,9,3.0,ES,02/06/21 13:14
161,161,Kandrian,-6.2167,149.55,78.82,84,99,7.49,PG,02/06/21 13:17
162,162,Nísia Floresta,-6.0911,-35.2086,87.8,62,75,11.5,BR,02/06/21 13:19
163,163,Fort Nelson,58.8053,-122.7002,-29.2,75,1,3.44,CA,02/06/21 13:15
164,164,Imbituba,-28.24,-48.6703,82.4,51,0,18.41,BR,02/06/21 13:19
165,165,Lata,40.1629,-8.3327,55.0,78,86,4.0,PT,02/06/21 13:13
166,166,Cañada,38.6767,-0.8141,61.0,46,97,5.01,ES,02/06/21 13:19
167,167,Staryy Nadym,65.6118,72.6842,-23.66,85,90,13.42,RU,02/06/21 13:19
168,168,Falun,60.6036,15.626,17.6,86,90,10.36,SE,02/06/21 13:19
169,169,Tabuk,17.4189,121.4443,69.66,90,27,1.88,PH,02/06/21 13:16
170,170,Vardø,70.3705,31.1107,23.0,80,40,18.41,NO,02/06/21 13:15
171,171,Ukiah,39.1502,-123.2078,53.01,76,1,0.92,US,02/06/21 13:19
172,172,Hervey Bay,-25.2986,152.8535,73.99,82,100,1.01,AU,02/06/21 13:19
173,173,Siguiri,11.6667,-9.5,93.07,11,96,1.68,GN,02/06/21 13:19
174,174,Santa Isabel Rio Negro,-0.4139,-65.0192,92.23,55,91,1.23,BR,02/06/21 13:19
175,175,Coquimbo,-29.9533,-71.3436,68.0,64,20,10.36,CL,02/06/21 13:17
176,176,Hirara,24.8,125.2833,70.21,66,0,7.63,JP,02/06/21 13:19
177,177,Corrente,-3.7367,-43.3394,91.09,47,66,5.84,BR,02/06/21 13:19
178,178,Kargasok,59.0556,80.8572,33.93,94,100,13.49,RU,02/06/21 13:19
179,179,Lagoa,39.05,-27.9833,59.63,90,100,22.19,PT,02/06/21 13:13
180,180,Murgab,37.4966,61.9714,50.0,71,90,4.61,TM,02/06/21 13:19
181,181,Chiang Khong,20.2613,100.4046,68.0,94,0,1.86,TH,02/06/21 13:19
182,182,Nantucket,41.2835,-70.0995,42.8,61,1,18.41,US,02/06/21 13:19
183,183,Guarapari,-20.6667,-40.4975,86.0,66,20,14.97,BR,02/06/21 13:19
184,184,Fergus Falls,46.283,-96.0776,-11.0,64,40,23.02,US,02/06/21 13:19
185,185,Mt. Pleasant,32.7941,-79.8626,52.0,71,90,6.91,US,02/06/21 13:19
186,186,Sampit,-2.5333,112.95,75.02,96,95,1.72,ID,02/06/21 13:19
187,187,Chu,43.5983,73.7614,40.19,68,100,8.88,KZ,02/06/21 13:19
188,188,Marsá Maţrūḩ,31.3525,27.2453,60.8,77,0,6.91,EG,02/06/21 13:19
189,189,Ixtapa,20.7,-105.2,78.8,53,40,4.61,MX,02/06/21 13:15
190,190,Port Blair,11.6667,92.75,78.85,76,4,7.92,IN,02/06/21 13:17
191,191,Bay City,43.5945,-83.8889,21.0,62,1,20.71,US,02/06/21 13:17
192,192,Ouargaye,11.5033,0.0572,86.92,16,86,1.57,BF,02/06/21 13:19
193,193,Talara,-4.5772,-81.2719,87.8,48,62,11.5,PE,02/06/21 13:19
194,194,Hambantota,6.1241,81.1185,77.74,84,86,17.52,LK,02/06/21 13:19
195,195,Ahipara,-35.1667,173.1667,58.35,87,79,4.97,NZ,02/06/21 13:19
196,196,Thompson,55.7435,-97.8558,-31.0,61,75,14.97,CA,02/06/21 13:15
197,197,Mogwase,-25.185,27.2665,63.68,96,100,5.39,ZA,02/06/21 13:19
198,198,Belmonte,-15.8631,-38.8828,86.0,79,75,9.22,BR,02/06/21 13:19
199,199,Port Elizabeth,-33.918,25.5701,69.8,94,90,10.36,ZA,02/06/21 13:17
200,200,Pevek,69.7008,170.3133,-1.7,86,100,2.42,RU,02/06/21 13:14
201,201,Tabou,4.423,-7.3528,81.14,84,47,8.77,CI,02/06/21 13:17
202,202,Shache,38.4167,77.2406,32.65,77,15,3.94,CN,02/06/21 13:16
203,203,Prado,-17.3411,-39.2208,81.41,84,92,12.41,BR,02/06/21 13:19
204,204,Alice,27.7523,-98.0697,68.0,82,90,6.91,US,02/06/21 13:19
205,205,Condado,21.8767,-79.8403,86.0,62,20,13.8,CU,02/06/21 13:19
206,206,Mount Gambier,-37.8333,140.7667,57.2,82,90,8.05,AU,02/06/21 13:17
207,207,Sur,22.5667,59.5289,64.69,63,0,7.38,OM,02/06/21 13:19
208,208,Tual,-5.6667,132.75,83.86,75,100,21.72,ID,02/06/21 13:19
209,209,Madimba,-10.4,40.3333,82.4,78,40,9.22,TZ,02/06/21 13:19
210,210,Kahului,20.8947,-156.47,66.99,72,20,4.61,US,02/06/21 13:19
211,211,Staraya Poltavka,50.4772,46.4814,18.57,89,96,10.92,RU,02/06/21 13:19
212,212,Gouyave,12.1646,-61.7296,84.2,58,20,23.02,GD,02/06/21 13:19
213,213,Kruisfontein,-34.0033,24.7314,69.01,87,0,1.99,ZA,02/06/21 13:19
214,214,Taylorville,39.5489,-89.2945,28.0,79,1,8.05,US,02/06/21 13:19
215,215,East London,-33.0153,27.9116,73.4,94,20,2.3,ZA,02/06/21 13:17
216,216,Paramonga,-10.6667,-77.8333,75.72,65,36,10.22,PE,02/06/21 13:19
217,217,Skjervøy,70.0311,20.9714,29.61,94,100,20.47,NO,02/06/21 13:19
218,218,Belomorsk,64.5232,34.7668,20.26,97,100,12.84,RU,02/06/21 13:19
219,219,Tiksi,71.6872,128.8694,-25.56,86,100,5.82,RU,02/06/21 13:16
220,220,West Fargo,46.875,-96.9004,-9.4,59,90,19.57,US,02/06/21 13:14
221,221,Mukhen,48.1,136.1,-12.73,89,100,1.32,RU,02/06/21 13:19
222,222,Nemuro,43.3236,145.575,26.62,98,100,11.36,JP,02/06/21 13:17
223,223,Airai,-8.9266,125.4092,60.51,100,100,2.39,TL,02/06/21 13:16
224,224,Toguchin,55.2353,84.3858,31.03,97,100,11.25,RU,02/06/21 13:19
225,225,Zhigansk,66.7697,123.3711,-40.56,80,80,10.6,RU,02/06/21 13:19
226,226,Hithadhoo,-0.6,73.0833,81.77,77,90,15.7,MV,02/06/21 13:15
227,227,Socoltenango,16.2167,-92.25,76.28,38,3,7.65,MX,02/06/21 13:19
228,228,Rāwah,34.4816,41.9093,57.61,75,69,7.47,IQ,02/06/21 13:19
229,229,Bilibino,68.0546,166.4372,-9.2,82,0,2.57,RU,02/06/21 13:19
230,230,Madang,-5.2246,145.7966,76.15,91,100,9.37,PG,02/06/21 13:19
231,231,Baghdad,33.3406,44.4009,57.2,94,90,6.91,IQ,02/06/21 13:19
232,232,Tubualá,9.5167,-79.0333,87.8,62,40,12.66,PA,02/06/21 13:19
233,233,Bandarbeyla,9.4942,50.8122,76.69,79,18,13.78,SO,02/06/21 13:15
234,234,Cherskiy,68.75,161.3,-9.62,81,0,6.42,RU,02/06/21 13:14
235,235,Bereket,39.2446,55.5154,49.14,78,94,5.44,TM,02/06/21 13:19
236,236,Bubaque,11.2833,-15.8333,79.88,63,24,14.99,GW,02/06/21 13:15
237,237,Lompoc,34.6391,-120.4579,60.8,58,1,3.44,US,02/06/21 13:15
238,238,Vao,-22.6667,167.4833,77.52,86,0,7.54,NC,02/06/21 13:19
239,239,São Filipe,14.8961,-24.4956,71.2,70,11,13.27,CV,02/06/21 13:14
240,240,Talnakh,69.4865,88.3972,-29.0,75,0,3.44,RU,02/06/21 13:15
241,241,Hasaki,35.7333,140.8333,37.4,93,20,1.14,JP,02/06/21 13:15
242,242,Kovdor,67.5662,30.4758,14.67,97,99,7.11,RU,02/06/21 13:19
243,243,Barrow,71.2906,-156.7887,-0.4,71,90,11.5,US,02/06/21 13:15
244,244,Nishihara,26.1842,127.7558,66.2,72,20,5.75,JP,02/06/21 13:15
245,245,Zatoka,46.0725,30.4654,26.6,86,75,4.47,UA,02/06/21 13:19
246,246,Tsimmerbude,54.675,20.1347,5.0,85,20,4.47,RU,02/06/21 13:19
247,247,Bhādra,29.1167,75.1667,58.98,35,0,5.26,IN,02/06/21 13:19
248,248,Kiryat Gat,31.61,34.7642,62.01,100,14,1.79,IL,02/06/21 13:19
249,249,Salimpur,28.128,76.2766,52.48,45,0,3.27,IN,02/06/21 13:19
250,250,Plouzané,48.3833,-4.6167,44.6,81,75,5.75,FR,02/06/21 13:19
251,251,Necochea,-38.5473,-58.7368,77.0,56,5,13.89,AR,02/06/21 13:19
252,252,Vieste,41.8825,16.175,48.2,93,61,6.91,IT,02/06/21 13:19
253,253,Marsh Harbour,26.5412,-77.0636,76.82,76,0,18.41,BS,02/06/21 13:19
254,254,Seoul,37.5683,126.9778,46.4,93,75,4.61,KR,02/06/21 13:11
255,255,Danshui,22.7984,114.4672,68.0,69,0,1.88,CN,02/06/21 13:19
256,256,Cascais,38.6979,-9.4215,53.01,76,75,19.57,PT,02/06/21 13:19
257,257,São João da Barra,-21.6403,-41.0511,75.2,78,75,13.8,BR,02/06/21 13:15
258,258,Yangi Marg`ilon,40.4272,71.7189,41.0,56,100,4.61,UZ,02/06/21 13:19
259,259,San Patricio,28.017,-97.5169,68.0,77,90,8.05,US,02/06/21 13:14
260,260,Narsaq,60.9167,-46.05,33.8,27,1,18.41,GL,02/06/21 13:15
261,261,Catemaco,18.4167,-95.1167,87.8,37,1,10.22,MX,02/06/21 13:19
262,262,At-Bashi,41.1702,75.8106,25.16,79,100,0.63,KG,02/06/21 13:19
263,263,Praia,14.9215,-23.5087,71.6,60,75,23.02,CV,02/06/21 13:19
264,264,Inírida,3.8653,-67.9239,87.53,65,78,1.77,CO,02/06/21 13:19
265,265,Presidencia Roque Sáenz Peña,-26.7852,-60.4388,94.5,20,0,5.61,AR,02/06/21 13:17
266,266,Tarko-Sale,64.9225,77.785,-1.07,92,100,14.99,RU,02/06/21 13:19
267,267,Rocha,-34.4833,-54.3333,85.1,37,0,15.17,UY,02/06/21 13:19
268,268,Three Hills,51.7001,-113.2686,-9.4,77,100,3.44,CA,02/06/21 13:19
269,269,Comodoro Rivadavia,-45.8667,-67.5,57.2,77,90,17.27,AR,02/06/21 13:16
270,270,Cap Malheureux,-19.9842,57.6142,80.01,80,37,1.99,MU,02/06/21 13:19
271,271,Codrington,-38.2667,141.9667,58.21,79,93,14.16,AU,02/06/21 13:16
272,272,Lahaina,20.8783,-156.6825,66.99,72,20,4.61,US,02/06/21 13:18
273,273,Alice Springs,-23.7,133.8833,73.99,35,46,5.75,AU,02/06/21 13:15
274,274,Charlestown,-32.95,151.6667,71.01,98,30,4.72,AU,02/06/21 13:19
275,275,Portland,45.5234,-122.6762,45.0,76,90,10.36,US,02/06/21 13:11
276,276,Ilhéus,-14.7889,-39.0494,86.0,70,20,8.05,BR,02/06/21 13:14
277,277,Caborca,30.5838,-111.101,62.01,36,0,1.99,MX,02/06/21 13:19
278,278,Athani,16.7333,75.0667,73.24,26,0,9.69,IN,02/06/21 13:19
279,279,College,64.8569,-147.8028,-9.4,70,90,0.72,US,02/06/21 13:14
280,280,Burns Lake,54.2331,-125.7533,21.2,73,100,2.3,CA,02/06/21 13:19
281,281,Cayenne,4.9333,-52.3333,78.8,94,75,14.97,GF,02/06/21 13:16
282,282,Sobolevo,54.4299,31.8996,0.28,93,97,9.26,RU,02/06/21 13:16
283,283,Requena,39.4883,-1.1004,60.8,51,20,12.66,ES,02/06/21 13:19
284,284,Araguaçu,-12.9306,-49.8264,79.93,86,100,9.51,BR,02/06/21 13:19
285,285,Yoichi,43.2039,140.7703,24.01,87,99,5.48,JP,02/06/21 13:19
286,286,Socorro,31.6546,-106.3033,57.2,21,1,10.98,US,02/06/21 13:16
287,287,Pangkalanbuun,-2.6833,111.6167,74.91,97,100,2.95,ID,02/06/21 13:19
288,288,Wajima,37.4,136.9,48.58,71,7,17.31,JP,02/06/21 13:19
289,289,Porto Santo,33.072,-16.3415,59.0,63,40,19.57,PT,02/06/21 13:15
290,290,Baykit,61.67,96.37,6.39,91,100,4.65,RU,02/06/21 13:19
291,291,Ust'-Ilimsk,58.0006,102.6619,6.26,94,100,5.44,RU,02/06/21 13:17
292,292,Berlevåg,70.8578,29.0864,26.55,94,100,24.16,NO,02/06/21 13:14
293,293,Talcahuano,-36.7167,-73.1167,60.8,82,90,6.91,CL,02/06/21 13:19
294,294,Orotukan,62.2667,151.7,-20.36,85,96,1.16,RU,02/06/21 13:19
295,295,Praxédis Guerrero,31.3667,-106.0167,57.2,21,1,8.99,MX,02/06/21 13:19
296,296,Oktyabr'skoye,43.0645,44.7417,35.6,69,98,8.95,RU,02/06/21 13:17
297,297,Uruburetama,-3.625,-39.5083,92.59,40,64,12.82,BR,02/06/21 13:19
298,298,Husavik,66.0449,-17.3389,28.4,80,75,4.61,IS,02/06/21 13:19
299,299,Andros,37.8333,24.9333,64.0,59,0,11.01,GR,02/06/21 13:19
300,300,Honiara,-9.4333,159.95,77.38,86,100,5.06,SB,02/06/21 13:15
301,301,Sørland,67.667,12.6934,34.79,82,95,25.55,NO,02/06/21 13:19
302,302,Jalu,29.0331,21.5482,64.74,33,45,9.4,LY,02/06/21 13:18
303,303,Pokhara,28.2333,83.9833,49.06,47,8,4.12,NP,02/06/21 13:19
304,304,Hokitika,-42.7167,170.9667,55.72,90,2,3.38,NZ,02/06/21 13:19
305,305,Coro,11.4045,-69.6734,84.99,53,76,18.86,VE,02/06/21 13:15
306,306,Ponta do Sol,32.6667,-17.1,59.0,61,39,3.0,PT,02/06/21 13:15
307,307,Saldanha,-33.0117,17.9442,69.8,78,20,16.11,ZA,02/06/21 13:14
308,308,Safford,32.834,-109.7076,55.0,32,1,2.84,US,02/06/21 13:19
309,309,Zavitinsk,50.1167,129.45,-20.0,88,71,6.51,RU,02/06/21 13:19
310,310,Gizo Government Station,-8.103,156.8419,82.33,76,79,13.62,SB,02/06/21 13:19
311,311,Morant Bay,17.8815,-76.4093,87.01,70,20,25.32,JM,02/06/21 13:19
312,312,Villamontes,-21.25,-63.5,92.34,31,74,7.31,BO,02/06/21 13:19
313,313,Esperance,-33.8667,121.9,59.0,94,90,12.66,AU,02/06/21 13:16
314,314,Chui,-33.6971,-53.4616,82.99,46,0,10.51,UY,02/06/21 13:15
315,315,Hofn,64.2539,-15.2082,35.11,85,99,18.03,IS,02/06/21 13:15
316,316,Devrek,41.2192,31.9558,54.37,55,11,3.56,TR,02/06/21 13:19
317,317,Ndendé,-2.4008,11.3581,77.34,91,84,3.96,GA,02/06/21 13:19
318,318,Maragogi,-9.0122,-35.2225,84.16,63,58,14.0,BR,02/06/21 13:19
319,319,Latung,5.5,120.8833,81.21,80,100,5.21,PH,02/06/21 13:19
320,320,Longyearbyen,78.2186,15.6401,23.0,74,75,2.3,SJ,02/06/21 13:15
321,321,Sedalia,38.7045,-93.2283,25.0,54,90,11.5,US,02/06/21 13:15
322,322,Paamiut,61.994,-49.6678,22.87,82,0,6.93,GL,02/06/21 13:19
323,323,Chokurdakh,70.6333,147.9167,-19.98,86,91,6.8,RU,02/06/21 13:15
324,324,Isla Vista,34.4133,-119.861,63.0,63,1,3.44,US,02/06/21 13:19
325,325,Sioux Falls,43.55,-96.7003,1.99,60,75,19.57,US,02/06/21 13:19
326,326,Acapulco de Juárez,16.8634,-99.8901,84.2,65,20,8.05,MX,02/06/21 13:14
327,327,Verkhoyansk,67.5447,133.385,-26.07,83,100,2.06,RU,02/06/21 13:14
328,328,Samarai,-10.6167,150.6667,82.33,77,100,6.22,PG,02/06/21 13:15
329,329,Kloulklubed,7.0419,134.2556,78.8,94,75,11.5,PW,02/06/21 13:19
330,330,Masterton,-40.9597,175.6575,52.0,84,100,3.0,NZ,02/06/21 13:19
331,331,Ereymentau,51.6199,73.1033,30.07,94,100,20.36,KZ,02/06/21 13:19
332,332,Karratha,-20.7377,116.8463,78.53,75,36,10.54,AU,02/06/21 13:19
333,333,Norman Wells,65.282,-126.8329,-32.8,75,75,4.61,CA,02/06/21 13:17
334,334,Cockburn Town,21.4612,-71.1419,82.4,65,40,16.11,TC,02/06/21 13:16
335,335,Stolin,51.8912,26.846,8.6,91,36,7.34,BY,02/06/21 13:19
336,336,Flinders,-34.5833,150.8552,64.99,88,0,1.01,AU,02/06/21 13:19
337,337,Camopi,3.1655,-52.3158,74.34,96,98,4.99,GF,02/06/21 13:19
338,338,Aklavik,68.2191,-135.0107,-27.4,68,75,3.44,CA,02/06/21 13:15
339,339,Tessalit,20.1986,1.0114,81.77,14,100,9.69,ML,02/06/21 13:19
340,340,Mocuba,-16.8392,36.9856,77.68,86,81,4.61,MZ,02/06/21 13:19
341,341,Garoowe,8.4054,48.4845,72.16,69,0,17.52,SO,02/06/21 13:19
342,342,Vanavara,60.34,102.2797,0.59,93,100,4.7,RU,02/06/21 13:19
343,343,Pontes e Lacerda,-15.2261,-59.3353,90.54,43,24,4.09,BR,02/06/21 13:19
344,344,Dajal,29.5577,70.3762,58.84,33,0,4.45,PK,02/06/21 13:19
345,345,Pauini,-7.7136,-66.9764,91.2,55,80,1.14,BR,02/06/21 13:19
346,346,Bud,39.447,-86.1758,24.01,50,1,4.41,US,02/06/21 13:16
347,347,Mayumba,-3.432,10.6554,80.15,80,79,4.88,GA,02/06/21 13:19
348,348,Kysyl-Syr,63.8986,122.7617,-37.95,81,49,4.97,RU,02/06/21 13:19
349,349,Talaya,61.3833,152.75,-15.34,84,100,1.05,RU,02/06/21 13:19
350,350,Sokolo,14.7328,-6.1219,91.17,11,95,4.5,ML,02/06/21 13:19
351,351,West Bend,43.4253,-88.1834,8.6,61,1,13.8,US,02/06/21 13:19
352,352,Arkadak,51.9326,43.4978,6.24,93,100,12.21,RU,02/06/21 13:19
353,353,Dunedin,-45.8742,170.5036,57.99,85,3,20.0,NZ,02/06/21 13:15
354,354,Kyren,51.6828,102.1408,6.35,80,63,1.97,RU,02/06/21 13:19
355,355,Pinega,64.7001,43.3936,-5.49,90,99,9.4,RU,02/06/21 13:19
356,356,Meadow Lake,34.8014,-106.5436,48.0,26,1,10.36,US,02/06/21 13:19
357,357,Margate,51.3813,1.3862,44.01,91,99,3.0,GB,02/06/21 13:13
358,358,Havelock,34.8791,-76.9013,50.0,57,75,6.91,US,02/06/21 13:18
359,359,Katsuura,35.1333,140.3,42.8,65,0,8.05,JP,02/06/21 13:19
360,360,Kesinga,20.2,83.2333,63.46,31,0,3.47,IN,02/06/21 13:19
361,361,Tura,25.5198,90.2201,57.02,72,45,2.3,IN,02/06/21 13:16
362,362,Tasiilaq,65.6145,-37.6368,32.0,80,75,43.73,GL,02/06/21 13:13
363,363,Filoti,37.05,25.5,60.8,100,0,10.36,GR,02/06/21 13:19
364,364,Khani,41.9563,42.9566,50.0,62,20,10.36,GE,02/06/21 13:19
365,365,Kilis,36.7161,37.115,46.4,76,0,3.71,TR,02/06/21 13:15
366,366,Kununurra,-15.7667,128.7333,80.6,100,75,6.91,AU,02/06/21 13:15
367,367,Mountain Home,43.133,-115.6912,41.0,60,1,3.44,US,02/06/21 13:19
368,368,Aripuanã,-9.1667,-60.6333,77.5,97,94,1.92,BR,02/06/21 13:19
369,369,Partizanskoye,55.5006,94.39,21.83,94,100,8.48,RU,02/06/21 13:19
370,370,Abnūb,27.2696,31.1511,66.2,55,0,9.22,EG,02/06/21 13:19
371,371,Zavetnoye,47.1194,43.8903,28.72,80,88,10.4,RU,02/06/21 13:19
372,372,Laas,46.6166,10.7002,41.0,93,40,9.22,IT,02/06/21 13:17
373,373,Jiangyou,31.7667,104.7167,48.72,60,68,3.89,CN,02/06/21 13:18
374,374,Novo Aripuanã,-5.1206,-60.3797,82.31,87,83,2.66,BR,02/06/21 13:19
375,375,Goderich,43.7501,-81.7165,17.6,73,100,23.02,CA,02/06/21 13:19
376,376,Haapsalu,58.9431,23.5414,19.0,82,78,5.99,EE,02/06/21 13:19
377,377,Usol'ye,59.4268,56.6808,12.99,75,100,1.99,RU,02/06/21 13:19
378,378,Sinnamary,5.3833,-52.95,79.52,85,91,16.06,GF,02/06/21 13:19
379,379,Fortuna,40.5982,-124.1573,48.99,93,90,4.61,US,02/06/21 13:15
380,380,Fare,-16.7,-151.0167,81.52,69,4,10.51,PF,02/06/21 13:19
381,381,Cidreira,-30.1811,-50.2056,76.57,62,60,9.66,BR,02/06/21 13:16
382,382,Notre-Dame-du-Lac,47.6136,-68.7964,26.6,50,77,11.5,CA,02/06/21 13:19
383,383,Lethem,3.3803,-59.7968,92.08,40,75,11.27,GY,02/06/21 13:20
384,384,Shubarshi,48.5872,57.1869,15.19,95,94,14.43,KZ,02/06/21 13:20
385,385,Aberdeen,57.1437,-2.0981,35.6,75,75,17.27,GB,02/06/21 13:20
386,386,Brits,-25.6347,27.7802,64.99,88,75,10.36,ZA,02/06/21 13:20
387,387,Luwuk,-0.9516,122.7875,77.61,73,100,3.4,ID,02/06/21 13:20
388,388,Dutlwe,-23.9833,23.9,67.39,92,100,11.68,BW,02/06/21 13:20
389,389,Selfoss,63.9331,-20.9971,37.4,48,20,21.85,IS,02/06/21 13:20
390,390,Saýat,38.7839,63.8803,50.0,81,90,9.22,TM,02/06/21 13:20
391,391,Safi,32.2994,-9.2372,57.6,71,58,13.31,MA,02/06/21 13:15
392,392,Pisco,-13.7,-76.2167,75.99,78,75,10.36,PE,02/06/21 13:14
393,393,Masindi,1.6744,31.715,76.21,27,12,4.09,UG,02/06/21 13:20
394,394,São Miguel do Araguaia,-13.275,-50.1628,80.78,85,100,10.69,BR,02/06/21 13:20
395,395,La Providencia,28.7167,-111.5833,69.01,31,47,10.0,MX,02/06/21 13:20
396,396,Santa Cruz del Sur,20.7147,-77.9956,82.54,62,29,7.27,CU,02/06/21 13:20
397,397,Øksfjord,70.2396,22.3479,27.0,86,40,12.66,NO,02/06/21 13:20
398,398,Pimentel,-6.8367,-79.9342,78.8,61,90,14.97,PE,02/06/21 13:20
399,399,Mokrous,51.2333,47.5167,12.34,92,100,16.33,RU,02/06/21 13:20
400,400,Turtas,58.9417,69.1325,33.69,95,100,13.13,RU,02/06/21 13:20
401,401,Ust-Kuyga,70.0167,135.6,-26.91,83,100,2.93,RU,02/06/21 13:20
402,402,Khotynets,53.1286,35.3966,-0.71,93,99,8.79,RU,02/06/21 13:20
403,403,Antalaha,-14.9003,50.2788,77.86,78,63,1.23,MG,02/06/21 13:16
404,404,Constitución,-35.3333,-72.4167,65.77,69,80,5.75,CL,02/06/21 13:20
405,405,La Libertad,-2.2333,-80.9,86.0,62,0,8.05,EC,02/06/21 13:20
406,406,Byron Bay,-28.65,153.6167,69.8,94,90,2.71,AU,02/06/21 13:20
407,407,Kiama,-34.6833,150.8667,66.0,82,0,1.01,AU,02/06/21 13:15
408,408,Asău,46.4333,26.4,30.0,75,100,3.96,RO,02/06/21 13:16
409,409,Beberibe,-4.1797,-38.1306,87.8,62,40,12.66,BR,02/06/21 13:20
410,410,Iquitos,-3.7481,-73.2472,86.0,70,75,3.44,PE,02/06/21 13:20
411,411,Kokopo,-4.352,152.2633,76.17,84,44,4.43,PG,02/06/21 13:17
412,412,Iqaluit,63.7506,-68.5145,24.8,86,90,17.27,CA,02/06/21 13:20
413,413,Vostok,46.4856,135.8833,-11.79,91,100,2.64,RU,02/06/21 13:20
414,414,Guerrero Negro,27.9769,-114.0611,66.13,51,1,4.47,MX,02/06/21 13:20
415,415,Lavrentiya,65.5833,-171.0,-4.56,80,73,4.29,RU,02/06/21 13:12
416,416,Saint George,37.1041,-113.5841,53.01,36,0,0.96,US,02/06/21 13:16
417,417,Pedra Branca,-5.4542,-39.7172,93.07,30,43,10.18,BR,02/06/21 13:20
418,418,Ilhabela,-23.7781,-45.3581,77.14,63,90,3.96,BR,02/06/21 13:20
419,419,Eruwa,7.5333,3.4167,93.09,21,91,2.57,NG,02/06/21 13:20
420,420,Emerald,-23.5333,148.1667,82.4,69,100,9.22,AU,02/06/21 13:20
421,421,Libreville,0.3925,9.4537,84.2,84,40,9.22,GA,02/06/21 13:20
422,422,Redenção,-4.2258,-38.7306,87.8,62,40,12.66,BR,02/06/21 13:20
423,423,Tamboril,19.4854,-70.611,86.0,54,40,16.11,DO,02/06/21 13:20
424,424,Suicheng,33.8963,117.9331,47.86,67,22,7.36,CN,02/06/21 13:20
425,425,Arandis,-22.4167,14.9667,64.99,87,0,1.99,NA,02/06/21 13:20
426,426,Iskateley,67.6803,53.1512,-24.83,85,81,12.17,RU,02/06/21 13:20
427,427,Taltal,-25.4,-70.4833,68.9,61,19,5.48,CL,02/06/21 13:17
428,428,Kongsberg,59.6652,9.6465,12.99,83,1,5.99,NO,02/06/21 13:20
429,429,Altamirano,16.8833,-92.15,79.61,25,0,1.88,MX,02/06/21 13:20
430,430,Caruray,10.3094,119.0128,77.0,88,20,4.61,PH,02/06/21 13:20
431,431,Haines Junction,60.7522,-137.5108,-25.6,68,91,1.14,CA,02/06/21 13:15
432,432,Matara,5.9485,80.5353,75.79,88,97,10.51,LK,02/06/21 13:20
433,433,Pacific Grove,36.6177,-121.9166,59.0,58,1,8.1,US,02/06/21 13:20
434,434,Kuito,-12.3833,16.9333,63.64,91,97,7.72,AO,02/06/21 13:15
435,435,Mae Hong Son,19.3003,97.9685,68.68,53,8,0.89,TH,02/06/21 13:20
436,436,Monrovia,6.3005,-10.7969,78.8,94,75,6.73,LR,02/06/21 13:20
437,437,Makakilo City,21.3469,-158.0858,69.8,60,90,4.61,US,02/06/21 13:15
438,438,Jiuquan,39.7432,98.5174,28.42,67,21,0.4,CN,02/06/21 13:20
439,439,Gold Coast,-28.0,153.4333,73.99,94,40,3.44,AU,02/06/21 13:16
440,440,Zhangjiakou Shi Xuanhua Qu,40.6103,115.0447,24.73,83,0,6.76,CN,02/06/21 13:20
441,441,Saint-François,46.4154,3.9054,48.99,100,77,2.3,FR,02/06/21 13:17
442,442,Adrar,20.5022,-10.0711,67.89,26,48,12.55,MR,02/06/21 13:20
443,443,Muroto-misakicho,33.2833,134.15,53.06,69,0,4.65,JP,02/06/21 13:16
444,444,Elverum,60.8819,11.5623,9.68,91,0,4.25,NO,02/06/21 13:20
445,445,Makkah al Mukarramah,21.4267,39.8261,68.4,52,40,10.67,SA,02/06/21 13:20
446,446,Yakeshi,49.2833,120.7333,-19.86,84,0,3.27,CN,02/06/21 13:20
447,447,La Asuncion,11.0333,-63.8628,79.57,73,97,18.14,VE,02/06/21 13:20
448,448,Pandan,14.0453,124.1694,78.53,87,58,11.5,PH,02/06/21 13:17
449,449,Kavaratti,10.5669,72.642,81.09,66,0,12.21,IN,02/06/21 13:16
450,450,Mweka,-4.85,21.5667,72.16,86,52,0.65,CD,02/06/21 13:17
451,451,Abhā,18.2164,42.5053,51.8,82,20,8.05,SA,02/06/21 13:20
452,452,La Santisima Trinidad,-14.8333,-64.9,89.6,58,75,3.38,BO,02/06/21 13:17
453,453,São Jerônimo,-29.9592,-51.7222,80.6,44,20,5.75,BR,02/06/21 13:20
454,454,Kütahya,39.4242,29.9833,44.6,87,0,2.3,TR,02/06/21 13:15
455,455,Rokupr,8.6717,-12.395,97.63,24,80,4.61,SL,02/06/21 13:20
456,456,Port Hardy,50.6996,-127.4199,42.8,93,90,11.5,CA,02/06/21 13:20
457,457,Cabo Rojo,18.0866,-67.1457,87.01,60,18,8.01,PR,02/06/21 13:16
458,458,Atambua,-9.1061,124.8925,73.47,89,100,0.89,ID,02/06/21 13:16
459,459,Lázaro Cárdenas,17.9583,-102.2,82.6,56,24,5.79,MX,02/06/21 13:15
460,460,Kanye,-24.9667,25.3327,61.72,100,100,7.47,BW,02/06/21 13:20
461,461,Nyurba,63.2842,118.3319,-33.02,84,76,2.13,RU,02/06/21 13:20
462,462,Horasan,40.0458,42.1728,14.4,88,0,0.58,TR,02/06/21 13:20
463,463,Pangnirtung,66.1451,-65.7125,12.2,79,75,8.05,CA,02/06/21 13:14
464,464,Kirakira,-10.4544,161.9205,79.36,82,97,6.91,SB,02/06/21 13:17
465,465,Wilmington,34.2257,-77.9447,51.01,50,90,8.05,US,02/06/21 13:06
466,466,Mahon,39.8885,4.2658,55.4,88,0,4.61,ES,02/06/21 13:20
467,467,Nizhniy Tsasuchey,50.5167,115.1333,-6.09,86,2,6.44,RU,02/06/21 13:20
468,468,Granville,-33.8333,151.0167,68.0,94,0,8.05,AU,02/06/21 13:20
469,469,Tete,-16.1564,33.5867,89.6,51,40,9.22,MZ,02/06/21 13:20
470,470,Palauig,15.435,119.9045,78.8,75,19,1.59,PH,02/06/21 13:15
471,471,Tigil',57.8,158.6667,17.78,93,100,15.9,RU,02/06/21 13:20
472,472,Kaeo,-35.1,173.7833,60.01,93,89,4.0,NZ,02/06/21 13:20
473,473,Khovd,48.0056,91.6419,9.97,91,86,1.59,MN,02/06/21 13:17
474,474,Zhumadian,32.9794,114.0294,49.41,59,11,4.16,CN,02/06/21 13:20
475,475,Souillac,-20.5167,57.5167,78.8,83,40,6.91,MU,02/06/21 13:17
476,476,Mahibadhoo,3.7833,72.9667,81.05,79,34,11.95,MV,02/06/21 13:20
477,477,Lucapa,-8.4192,20.7447,68.49,96,99,4.09,AO,02/06/21 13:20
478,478,Meulaboh,4.1363,96.1285,78.71,83,69,3.49,ID,02/06/21 13:17
479,479,Oulainen,64.2667,24.8,16.0,92,85,7.0,FI,02/06/21 13:20
480,480,Dromolaxia,34.8761,33.586,60.01,88,0,2.3,CY,02/06/21 13:20
481,481,Vila Franca do Campo,37.7167,-25.4333,62.01,88,75,16.11,PT,02/06/21 13:15
482,482,Gori,41.9842,44.1158,42.62,64,29,0.87,GE,02/06/21 13:20
483,483,Itupiranga,-5.1347,-49.3267,95.0,46,75,6.91,BR,02/06/21 13:20
484,484,Dakar,14.6937,-17.4441,66.2,68,0,16.11,SN,02/06/21 13:14
485,485,Alta Floresta,-9.8756,-56.0861,80.6,89,75,5.75,BR,02/06/21 13:20
486,486,Santa Fe,-31.6333,-60.7,93.0,29,0,4.0,AR,02/06/21 13:18
487,487,Phuket,8.0,98.25,77.0,88,20,2.3,TH,02/06/21 13:20
488,488,Olafsvik,64.8945,-23.7142,36.27,78,100,17.54,IS,02/06/21 13:17
489,489,Kangaba,11.9333,-8.4167,94.8,11,82,2.19,ML,02/06/21 13:20
490,490,Kumluca,36.3703,30.2869,59.95,64,0,2.42,TR,02/06/21 13:20
491,491,Bintulu,3.1667,113.0333,77.0,100,40,3.44,MY,02/06/21 13:20
492,492,Macenta,8.5435,-9.471,86.92,38,100,3.91,GN,02/06/21 13:20
493,493,Isiro,2.7739,27.616,74.3,33,0,2.44,CD,02/06/21 13:20
494,494,Jiaojiang,28.6803,121.4428,55.99,70,74,0.72,CN,02/06/21 13:20
495,495,Yumen,40.2833,97.2,26.62,73,49,1.5,CN,02/06/21 13:16
496,496,Poum,-20.2333,164.0167,79.83,67,11,3.02,NC,02/06/21 13:20
497,497,Arys,42.4252,68.795,51.8,50,75,17.9,KZ,02/06/21 13:20
498,498,Verkh-Usugli,52.7,115.1667,-13.0,85,17,2.28,RU,02/06/21 13:20
499,499,Alyangula,-13.8483,136.4192,78.8,100,75,12.66,AU,02/06/21 13:15
500,500,Morros,-9.4467,-46.3003,76.55,81,100,6.76,BR,02/06/21 13:20
501,501,Kholmy,51.871,32.6006,4.14,93,82,9.37,UA,02/06/21 13:20
502,502,Pemberton,50.3164,-122.8027,39.0,93,90,4.61,CA,02/06/21 13:20
503,503,Yarim,14.298,44.3779,50.92,57,0,2.82,YE,02/06/21 13:20
504,504,Tateyama,34.9833,139.8667,42.8,65,0,8.05,JP,02/06/21 13:20
505,505,Mitsamiouli,-11.3847,43.2844,82.4,83,20,3.44,KM,02/06/21 13:20
506,506,Mount Isa,-20.7333,139.5,75.2,94,75,8.05,AU,02/06/21 13:16
507,507,Jiblah,13.9216,44.1467,57.81,61,0,3.53,YE,02/06/21 13:20
508,508,Magdagachi,53.45,125.8,-17.03,85,0,4.21,RU,02/06/21 13:20
509,509,Kumul,42.8,93.45,31.77,81,99,3.62,CN,02/06/21 13:20
510,510,Albanel,48.8832,-72.4487,23.0,91,100,14.97,CA,02/06/21 13:20
511,511,Kotido,2.9806,34.1331,82.15,26,81,11.07,UG,02/06/21 13:20
512,512,Christchurch,-43.5333,172.6333,60.01,82,90,9.22,NZ,02/06/21 13:16
513,513,San Rafael,-34.6177,-68.3301,89.78,22,0,12.41,AR,02/06/21 13:20
514,514,Polson,47.6936,-114.1632,32.0,45,100,1.72,US,02/06/21 13:20
515,515,Maşloc,45.9981,21.4497,54.0,94,0,4.61,RO,02/06/21 13:20
516,516,Seymchan,62.8833,152.4333,-23.84,85,93,1.01,RU,02/06/21 13:20
517,517,Banfora,10.6333,-4.7667,94.08,18,32,1.68,BF,02/06/21 13:20
518,518,Ulaangom,49.9811,92.0667,-7.04,89,10,2.19,MN,02/06/21 13:20
519,519,Poso,-1.3959,120.7524,77.27,80,100,3.96,ID,02/06/21 13:20
520,520,Fengxian,34.7039,116.5872,47.75,51,0,6.62,CN,02/06/21 13:20
521,521,Águilas,37.4063,-1.5829,59.0,51,90,18.01,ES,02/06/21 13:20
522,522,Saint Anthony,45.0205,-93.218,-0.4,50,20,18.41,US,02/06/21 13:20
523,523,Udachny,66.4167,112.4,-36.27,79,0,4.27,RU,02/06/21 13:20
524,524,Forsytheganj,52.6333,29.7333,4.53,93,40,8.97,BY,02/06/21 13:20
525,525,Katherine,-14.4667,132.2667,77.0,94,75,5.75,AU,02/06/21 13:20
526,526,Westport,41.1415,-73.3579,44.6,39,40,20.71,US,02/06/21 13:16
527,527,Langarūd,37.197,50.1535,53.6,87,90,2.3,IR,02/06/21 13:20
528,528,Skopin,53.8249,39.5505,5.0,71,97,10.92,RU,02/06/21 13:20
529,529,Bilma,18.6853,12.9164,70.29,21,38,7.83,NE,02/06/21 13:13
530,530,Tuy Hoa,13.0833,109.3,71.01,88,96,5.35,VN,02/06/21 13:20
531,531,Saint-Louis,16.3333,-15.0,80.6,39,0,4.61,SN,02/06/21 13:20
532,532,Saraza,8.7356,117.78,77.94,81,98,11.07,PH,02/06/21 13:20
533,533,Chapais,49.7834,-74.8492,17.6,73,75,16.11,CA,02/06/21 13:17
534,534,Kūdligi,14.9,76.3833,71.38,35,72,9.13,IN,02/06/21 13:20
535,535,Corinth,37.9407,22.9573,59.0,48,0,1.99,GR,02/06/21 13:20
536,536,Porto Belo,-27.1578,-48.5531,86.0,61,0,11.5,BR,02/06/21 13:20
537,537,Sydney,-33.8679,151.2073,70.0,94,0,8.05,AU,02/06/21 13:15
538,538,Barra do Corda,-5.5,-45.25,85.28,65,84,3.11,BR,02/06/21 13:19
539,539,Kapit,2.0167,112.9333,74.23,95,100,1.07,MY,02/06/21 13:20
540,540,Ballarat,-37.5662,143.8496,60.01,84,96,1.01,AU,02/06/21 13:19
541,541,Port-Cartier,50.0334,-66.8654,30.99,93,100,2.3,CA,02/06/21 13:16
542,542,Clarksdale,34.2001,-90.5709,51.8,46,100,9.22,US,02/06/21 13:20
543,543,Kokstad,-30.5472,29.4241,61.21,89,92,4.99,ZA,02/06/21 13:20
544,544,Poya,-21.35,165.15,74.68,84,15,2.39,NC,02/06/21 13:20
545,545,Stoughton,42.1251,-71.1023,43.0,33,1,14.97,US,02/06/21 13:16
546,546,Buraidah,26.326,43.975,51.8,100,75,6.91,SA,02/06/21 13:20
547,547,Boa Vista,2.8197,-60.6733,89.6,45,90,12.66,BR,02/06/21 13:20
548,548,Murud,18.3258,72.965,75.09,54,0,6.89,IN,02/06/21 13:20
549,549,Samaná,19.2056,-69.3369,86.0,70,20,13.8,DO,02/06/21 13:20
550,550,Kirkwood,38.5834,-90.4068,32.0,46,90,7.29,US,02/06/21 13:20
551,551,Oskaloosa,41.2964,-92.6444,10.4,79,90,16.11,US,02/06/21 13:20
552,552,Katangli,51.7102,143.2326,-3.19,92,100,7.9,RU,02/06/21 13:20
553,553,Itoman,26.1247,127.6694,66.2,88,20,5.75,JP,02/06/21 13:20
554,554,San Cristobal,7.7669,-72.225,87.8,55,20,6.91,VE,02/06/21 13:20
555,555,Greenwood,34.1668,-82.1165,52.0,34,90,5.75,US,02/06/21 13:20
556,556,Viedma,-40.8135,-62.9967,79.0,43,0,1.01,AR,02/06/21 13:20
557,557,Kudahuvadhoo,2.6708,72.8944,81.52,75,58,13.85,MV,02/06/21 13:20
558,558,Shimanovsk,52.0,127.7,-19.19,86,0,5.68,RU,02/06/21 13:20
559,559,Kjøllefjord,70.9457,27.3465,26.46,95,100,20.24,NO,02/06/21 13:20
560,560,Lichinga,-13.3128,35.2406,65.08,97,51,2.24,MZ,02/06/21 13:20
561,561,Kwinana,-32.25,115.7667,63.0,88,75,25.32,AU,02/06/21 13:20
562,562,Yekaterinovka,52.0508,44.3451,4.82,93,100,13.33,RU,02/06/21 13:19
563,563,Gawler,-34.6,138.7333,62.01,81,71,1.99,AU,02/06/21 13:20
564,564,Swift Current,50.2834,-107.8014,-13.0,77,75,5.75,CA,02/06/21 13:20
565,565,Lyaskelya,61.7667,31.0167,10.22,94,47,9.62,RU,02/06/21 13:20
