,index,City,Latitude,Longitude,Max Temperature (Celsius),Humidity (%),Cloudiness (%),Wind Speed (mph),Country,Date
0,0,Namatanai,-3.6667,152.4333,27.31,81,99,3.14,PG,02/04/21 02:20
1,1,Bredasdorp,-34.5322,20.0403,22.0,68,13,2.06,ZA,02/04/21 02:16
2,2,Chara,56.9064,118.2631,-25.5,78,100,0.25,RU,02/04/21 02:20
3,3,Puerto Ayora,-0.7393,-90.3518,24.44,94,98,3.53,EC,02/04/21 02:20
4,4,New Norfolk,-42.7826,147.0587,26.67,48,93,1.34,AU,02/04/21 02:20
5,5,Shiyan,32.6475,110.7781,11.98,38,100,2.91,CN,02/04/21 02:20
6,6,Punta Arenas,-53.15,-70.9167,16.0,67,75,10.8,CL,02/04/21 02:20
7,7,Tura,25.5198,90.2201,27.04,30,0,1.15,IN,02/04/21 02:20
8,8,Mataura,-46.1927,168.8643,13.2,56,0,3.5,NZ,02/04/21 02:20
9,9,Zdvinsk,54.7021,78.661,-11.4,94,1,4.14,RU,02/04/21 02:20
10,10,Cape Town,-33.9258,18.4232,22.0,68,20,8.75,ZA,02/04/21 02:20
11,11,Albany,42.6001,-73.9662,-1.67,61,73,5.81,US,02/04/21 02:20
12,12,Inuvik,68.3499,-133.7218,-39.0,74,21,2.34,CA,02/04/21 02:20
13,13,Beringovskiy,63.05,179.3167,-18.61,92,100,9.22,RU,02/04/21 02:20
14,14,Bengkulu,-3.8004,102.2655,29.61,67,0,4.45,ID,02/04/21 02:20
15,15,Kamenka,51.3223,42.7678,2.22,97,100,3.71,RU,02/04/21 02:20
16,16,Jamestown,42.097,-79.2353,-7.0,93,1,4.12,US,02/04/21 02:20
17,17,Qaanaaq,77.484,-69.3632,-30.12,63,0,2.66,GL,02/04/21 02:20
18,18,Terme,41.2092,36.9739,12.0,62,0,2.06,TR,02/04/21 02:19
19,19,Naze,28.3667,129.4833,18.0,55,40,3.6,JP,02/04/21 02:19
20,20,Mawlamyine,16.4914,97.6256,34.04,27,0,1.69,MM,02/04/21 02:20
21,21,Nanortalik,60.1432,-45.2371,-8.47,79,100,4.85,GL,02/04/21 02:20
22,22,Aktash,50.3,87.7333,-7.05,95,100,2.65,RU,02/04/21 02:20
23,23,Beian,63.6559,9.5683,-11.0,73,20,2.57,NO,02/04/21 02:20
24,24,Busselton,-33.65,115.3333,23.89,41,0,1.34,AU,02/04/21 02:20
25,25,Mbarara,-0.608,30.65,21.44,67,74,1.68,UG,02/04/21 02:18
26,26,Ransang,8.9603,117.5828,29.12,69,5,5.4,PH,02/04/21 02:20
27,27,Ushuaia,-54.8,-68.3,10.0,76,40,1.54,AR,02/04/21 02:20
28,28,Husavik,66.0449,-17.3389,-8.0,73,0,1.54,IS,02/04/21 02:20
29,29,Touros,-5.1989,-35.4608,23.0,88,20,2.06,BR,02/04/21 02:20
30,30,Adrar,20.5022,-10.0711,17.18,28,78,2.39,MR,02/04/21 02:20
31,31,Rikitea,-23.1203,-134.9692,25.29,73,100,6.52,PF,02/04/21 02:20
32,32,Den Helder,52.9599,4.7593,3.33,93,75,1.54,NL,02/04/21 02:20
33,33,Constitución,-35.3333,-72.4167,17.38,65,0,3.12,CL,02/04/21 02:20
34,34,Dingle,10.9995,122.6711,28.27,74,32,5.72,PH,02/04/21 02:20
35,35,Sept-Îles,50.2001,-66.3821,-2.78,86,100,3.6,CA,02/04/21 02:17
36,36,Ciudad Bolivar,8.1222,-63.5497,25.18,78,8,4.28,VE,02/04/21 02:20
37,37,Kapaa,22.0752,-159.319,18.89,68,1,2.06,US,02/04/21 02:20
38,38,Denpasar,-8.65,115.2167,31.0,66,20,4.63,ID,02/04/21 02:20
39,39,Vanimo,-2.6741,141.3028,28.63,74,99,3.83,PG,02/04/21 02:20
40,40,Mount Isa,-20.7333,139.5,38.0,23,86,3.09,AU,02/04/21 02:20
41,41,Burns Lake,54.2331,-125.7533,-7.0,86,100,1.54,CA,02/04/21 02:20
42,42,Saint-Philippe,-21.3585,55.7679,31.11,58,0,10.29,RE,02/04/21 02:20
43,43,Portland,45.5234,-122.6762,5.0,87,90,2.57,US,02/04/21 02:11
44,44,Krasnosel'kup,65.7,82.4667,-21.91,90,99,2.72,RU,02/04/21 02:20
45,45,Baturaja,-4.1333,104.1667,30.05,67,22,3.06,ID,02/04/21 02:20
46,46,Barrow,71.2906,-156.7887,-33.0,68,1,5.66,US,02/04/21 02:18
47,47,Hendersonville,36.3048,-86.62,-2.0,74,20,1.8,US,02/04/21 02:20
48,48,Marsá Maţrūḩ,31.3525,27.2453,17.0,77,40,6.69,EG,02/04/21 02:20
49,49,Mbigou,-1.9005,11.906,22.26,93,100,0.55,GA,02/04/21 02:17
50,50,Athabasca,54.7169,-113.2854,-28.0,83,36,1.44,CA,02/04/21 02:20
51,51,Cherniyiv,48.8566,24.7139,10.0,62,75,7.0,UA,02/04/21 02:20
52,52,Talnakh,69.4865,88.3972,-28.43,86,96,1.29,RU,02/04/21 02:20
53,53,Bograd,54.2344,90.8328,2.0,55,0,2.0,RU,02/04/21 02:20
54,54,Ribeira Grande,38.5167,-28.7,12.0,66,40,7.72,PT,02/04/21 02:20
55,55,Hobart,-42.8794,147.3294,26.67,57,75,5.66,AU,02/04/21 02:17
56,56,Rize,40.9044,40.8949,4.65,67,100,0.42,TR,02/04/21 02:20
57,57,Ahipara,-35.1667,173.1667,19.14,79,68,0.88,NZ,02/04/21 02:20
58,58,Yellowknife,62.456,-114.3525,-28.33,69,90,4.63,CA,02/04/21 02:19
59,59,Mar del Plata,-38.0023,-57.5575,17.22,94,0,1.54,AR,02/04/21 02:19
60,60,Gurupá,-1.405,-51.64,23.14,96,20,1.14,BR,02/04/21 02:20
61,61,Chokurdakh,70.6333,147.9167,-25.3,87,58,7.19,RU,02/04/21 02:20
62,62,Pauini,-7.7136,-66.9764,23.13,98,100,1.76,BR,02/04/21 02:20
63,63,Port Macquarie,-31.4333,152.9167,26.11,60,7,0.45,AU,02/04/21 02:20
64,64,Bara,10.3744,10.7288,21.28,21,61,3.9,NG,02/04/21 02:21
65,65,Butaritari,3.0707,172.7902,27.58,83,100,7.37,KI,02/04/21 02:21
66,66,Seminole,28.7086,-81.2081,4.44,70,1,1.54,US,02/04/21 02:21
67,67,Atuona,-9.8,-139.0333,25.79,71,0,4.95,PF,02/04/21 02:21
68,68,Pishin,30.5803,66.9961,9.59,42,0,1.12,PK,02/04/21 02:21
69,69,Geraldton,-28.7667,114.6,30.0,32,96,9.77,AU,02/04/21 02:21
70,70,Marawi,7.9986,124.2928,27.22,85,73,3.13,PH,02/04/21 02:21
71,71,Qaqortoq,60.7167,-46.0333,-10.0,37,40,0.51,GL,02/04/21 02:21
72,72,Lancaster,40.2504,-76.2499,-1.0,55,1,7.2,US,02/04/21 02:21
73,73,Arraial do Cabo,-22.9661,-42.0278,24.39,89,0,10.85,BR,02/04/21 02:18
74,74,Saint George,37.1041,-113.5841,8.89,56,1,2.57,US,02/04/21 02:21
75,75,Esil,51.9556,66.4042,-3.06,98,100,3.4,KZ,02/04/21 02:21
76,76,Muroto-misakicho,33.2833,134.15,13.0,33,20,7.2,JP,02/04/21 02:21
77,77,Hue,16.4667,107.6,22.0,94,75,3.6,VN,02/04/21 02:19
78,78,Longyearbyen,78.2186,15.6401,-5.0,74,75,6.69,SJ,02/04/21 02:21
79,79,Saint Paul Harbor,57.79,-152.4072,-3.0,86,20,2.72,US,02/04/21 02:21
80,80,Hithadhoo,-0.6,73.0833,28.5,71,100,4.15,MV,02/04/21 02:21
81,81,Port Alfred,-33.5906,26.891,22.22,87,95,1.34,ZA,02/04/21 02:21
82,82,Avarua,-21.2078,-159.775,28.0,74,20,3.6,CK,02/04/21 02:18
83,83,Viranşehir,37.2353,39.7631,12.04,56,100,4.8,TR,02/04/21 02:21
84,84,Shache,38.4167,77.2406,6.97,47,0,1.37,CN,02/04/21 02:21
85,85,Russell,32.3502,-85.1999,0.0,86,1,0.38,US,02/04/21 02:21
86,86,Nabire,-3.3667,135.4833,28.65,73,100,1.12,ID,02/04/21 02:21
87,87,Airai,-8.9266,125.4092,16.74,100,100,1.85,TL,02/04/21 02:21
88,88,Mahébourg,-20.4081,57.7,30.0,66,75,5.14,MU,02/04/21 02:21
89,89,Pangnirtung,66.1451,-65.7125,-21.07,77,100,1.07,CA,02/04/21 02:21
90,90,Ilulissat,69.2167,-51.1,-21.0,41,0,4.63,GL,02/04/21 02:21
91,91,Bonavista,48.6499,-53.1147,8.33,100,100,2.06,CA,02/04/21 02:21
92,92,Hermanus,-34.4187,19.2345,20.56,87,99,4.77,ZA,02/04/21 02:21
93,93,Bergama,39.1207,27.1805,14.0,100,20,2.06,TR,02/04/21 02:21
94,94,San Rafael,-34.6177,-68.3301,20.17,30,0,2.13,AR,02/04/21 02:21
95,95,Manono,-7.3,27.4167,25.18,82,58,0.87,CD,02/04/21 02:21
96,96,Antofagasta,-23.65,-70.4,16.0,82,0,2.06,CL,02/04/21 02:20
97,97,Chui,-33.6971,-53.4616,19.35,93,99,5.05,UY,02/04/21 02:21
98,98,Gubkinskiy,64.434,76.5026,-17.99,93,98,4.78,RU,02/04/21 02:21
99,99,Cidreira,-30.1811,-50.2056,23.93,89,92,3.59,BR,02/04/21 02:21
100,100,Syracuse,37.0881,15.2792,13.33,93,0,3.09,IT,02/04/21 02:21
101,101,Lompoc,34.6391,-120.4579,12.0,43,1,4.63,US,02/04/21 02:21
102,102,Álvares Machado,-22.0794,-51.4719,23.18,89,97,1.14,BR,02/04/21 02:19
103,103,Leningradskiy,69.3833,178.4167,-31.65,86,98,2.36,RU,02/04/21 02:21
104,104,Marrakesh,31.6315,-8.0083,10.0,93,90,2.06,MA,02/04/21 02:19
105,105,Okhotsk,59.3833,143.3,-17.6,88,100,8.26,RU,02/04/21 02:21
106,106,Bambous Virieux,-20.3428,57.7575,30.0,66,75,5.14,MU,02/04/21 02:21
107,107,Waipawa,-41.4122,175.5153,15.56,72,0,10.29,NZ,02/04/21 02:21
108,108,East London,-33.0153,27.9116,25.0,73,20,4.63,ZA,02/04/21 02:21
109,109,Ilo,-17.6394,-71.3375,20.97,81,100,2.62,PE,02/04/21 02:21
110,110,Bilma,18.6853,12.9164,13.61,38,64,4.18,NE,02/04/21 02:21
111,111,Acaraú,-2.8856,-40.12,25.28,82,95,5.58,BR,02/04/21 02:21
112,112,Saldanha,-33.0117,17.9442,21.0,73,34,4.63,ZA,02/04/21 02:20
113,113,Nyurba,63.2842,118.3319,-27.38,87,100,2.41,RU,02/04/21 02:21
114,114,Barcelos,41.5388,-8.6151,11.0,93,75,2.57,PT,02/04/21 02:21
115,115,Isangel,-19.55,169.2667,26.73,76,91,4.3,VU,02/04/21 02:21
116,116,Oxílithos,38.5833,24.1167,15.0,75,0,2.04,GR,02/04/21 02:21
117,117,Sitka,57.0531,-135.33,3.0,100,90,3.6,US,02/04/21 02:21
118,118,Key West,24.5557,-81.7826,15.0,82,1,3.09,US,02/04/21 02:18
119,119,Gravdal,68.1214,13.5031,-1.0,86,40,6.17,NO,02/04/21 02:21
120,120,Alice Springs,-23.7,133.8833,34.0,29,100,6.69,AU,02/04/21 02:21
121,121,Nantucket,41.2835,-70.0995,0.0,80,90,3.09,US,02/04/21 02:17
122,122,Benguela,-12.5763,13.4055,26.34,61,97,0.73,AO,02/04/21 02:21
123,123,Severodvinsk,64.5635,39.8302,-11.0,79,90,7.0,RU,02/04/21 02:21
124,124,Zverinogolovskoye,54.4586,64.8542,-8.29,95,100,2.69,RU,02/04/21 02:21
125,125,Solwezi,-12.1688,26.3894,20.75,88,100,1.43,ZM,02/04/21 02:21
126,126,Port Lincoln,-34.7333,135.8667,17.05,56,25,9.35,AU,02/04/21 02:21
127,127,Lebu,-37.6167,-73.65,14.4,93,8,5.27,CL,02/04/21 02:21
128,128,Acarí,-15.4311,-74.6158,22.68,68,100,0.95,PE,02/04/21 02:21
129,129,Sudzha,51.1976,35.2726,0.8,98,100,4.55,RU,02/04/21 02:21
130,130,Castro,-24.7911,-50.0119,18.91,94,100,1.4,BR,02/04/21 02:21
131,131,Inhambane,-23.865,35.3833,30.0,79,40,1.54,MZ,02/04/21 02:21
132,132,Hilo,19.7297,-155.09,22.0,78,1,2.57,US,02/04/21 02:21
133,133,Guarapari,-20.6667,-40.4975,24.0,88,0,1.54,BR,02/04/21 02:21
134,134,Derzhavīnsk,51.1,66.3167,-4.41,97,100,4.82,KZ,02/04/21 02:21
135,135,Havøysund,70.9963,24.6622,1.0,69,75,11.83,NO,02/04/21 02:21
136,136,Anáhuac,27.2333,-100.15,17.69,76,0,6.3,MX,02/04/21 02:21
137,137,Srandakan,-7.9386,110.2506,29.4,70,31,3.62,ID,02/04/21 02:21
138,138,Achim,53.0112,9.033,1.0,93,75,3.6,DE,02/04/21 02:21
139,139,Pueblo Bello,8.2041,-76.526,23.62,91,100,1.12,CO,02/04/21 02:21
140,140,Nakasongola,1.3089,32.4564,29.4,38,5,1.99,UG,02/04/21 02:21
141,141,Kurri Kurri,-32.8167,151.4833,27.22,76,25,0.45,AU,02/04/21 02:21
142,142,Eureka,40.8021,-124.1637,3.33,94,0,2.36,US,02/04/21 02:18
143,143,Khatanga,71.9667,102.5,-32.45,81,0,5.75,RU,02/04/21 02:21
144,144,Vaini,-21.2,-175.2,26.0,94,75,2.57,TO,02/04/21 02:21
145,145,Clyde River,70.4692,-68.5914,-31.0,76,1,2.06,CA,02/04/21 02:21
146,146,Satrikh,26.8667,81.2,25.0,53,20,2.06,IN,02/04/21 02:21
147,147,Tucson,32.2217,-110.9265,19.44,39,90,6.69,US,02/04/21 02:17
148,148,Los Llanos de Aridane,28.6585,-17.9182,17.0,63,20,3.6,ES,02/04/21 02:21
149,149,Shizunai-furukawachō,42.3339,142.3669,-5.29,88,100,9.86,JP,02/04/21 02:21
150,150,Arica,-18.475,-70.3042,20.0,77,0,1.03,CL,02/04/21 02:18
151,151,Christchurch,-43.5333,172.6333,14.44,62,0,5.66,NZ,02/04/21 02:21
152,152,Raton,36.9034,-104.4391,8.0,53,1,9.77,US,02/04/21 02:21
153,153,Novoseleznëvo,55.6821,69.2056,-11.93,95,19,1.55,RU,02/04/21 02:21
154,154,Deputatsky,69.3,139.9,-28.19,90,100,0.88,RU,02/04/21 02:21
155,155,Umm Hājar,13.2954,19.6966,22.49,20,0,6.03,TD,02/04/21 02:21
156,156,Tuktoyaktuk,69.4541,-133.0374,-39.0,67,40,3.09,CA,02/04/21 02:21
157,157,Vila Velha,-20.3297,-40.2925,24.0,88,0,1.54,BR,02/04/21 02:21
158,158,Carutapera,-1.195,-46.02,25.37,85,16,2.73,BR,02/04/21 02:21
159,159,Belmonte,-15.8631,-38.8828,23.0,88,20,1.54,BR,02/04/21 02:21
160,160,Tabou,4.423,-7.3528,24.83,91,4,1.99,CI,02/04/21 02:21
161,161,Extremoz,-5.7056,-35.3072,26.0,88,20,2.06,BR,02/04/21 02:21
162,162,Manaus,-3.1019,-60.025,25.0,100,0,1.15,BR,02/04/21 02:21
163,163,Grindavik,63.8424,-22.4338,2.0,80,75,10.8,IS,02/04/21 02:21
164,164,Temple,31.0982,-97.3428,16.67,88,90,10.29,US,02/04/21 02:21
165,165,Nishihara,26.1842,127.7558,22.0,37,40,4.63,JP,02/04/21 02:21
166,166,Kasongo,-4.45,26.6667,20.55,100,100,1.62,CD,02/04/21 02:21
167,167,Calvinia,-31.4707,19.776,21.0,40,0,2.06,ZA,02/04/21 02:21
168,168,Fortuna,40.5982,-124.1573,3.89,100,1,2.57,US,02/04/21 02:21
169,169,Srednekolymsk,67.45,153.6833,-28.54,88,67,2.43,RU,02/04/21 02:21
170,170,Montluçon,46.3333,2.6,6.67,94,100,2.08,FR,02/04/21 02:21
171,171,Mojokerto,-7.4664,112.4338,31.0,70,75,8.23,ID,02/04/21 02:21
172,172,Klaksvík,62.2266,-6.589,0.0,93,20,7.72,FO,02/04/21 02:21
173,173,Avera,33.194,-82.5271,-1.67,86,1,1.57,US,02/04/21 02:21
174,174,Moose Factory,51.2585,-80.6094,-12.0,92,75,2.57,CA,02/04/21 02:21
175,175,Tasiilaq,65.6145,-37.6368,-8.16,90,63,3.45,GL,02/04/21 02:21
176,176,Kuji,40.1878,141.7689,-5.0,86,75,4.63,JP,02/04/21 02:21
177,177,Kedrovyy,56.1667,91.8167,-7.0,68,40,7.0,RU,02/04/21 02:21
178,178,Severo-Kuril'sk,50.6789,156.125,-11.9,92,99,12.52,RU,02/04/21 02:21
179,179,George Town,5.4112,100.3354,35.0,31,20,6.17,MY,02/04/21 02:20
180,180,Seoul,37.5683,126.9778,1.0,29,0,0.51,KR,02/04/21 02:15
181,181,Bubaque,11.2833,-15.8333,25.24,62,16,3.66,GW,02/04/21 02:21
182,182,Muzhi,65.3667,64.6667,-15.92,90,86,1.32,RU,02/04/21 02:21
183,183,Motala,58.5371,15.0365,-9.0,86,90,5.14,SE,02/04/21 02:21
184,184,Ulagan,50.6321,87.9563,-0.54,89,100,4.56,RU,02/04/21 02:21
185,185,Munai,7.9758,124.0636,25.77,76,40,2.32,PH,02/04/21 02:21
186,186,Tyulyachi,55.8913,50.2399,-5.0,93,90,3.0,RU,02/04/21 02:21
187,187,Thompson,55.7435,-97.8558,-21.0,71,90,6.69,CA,02/04/21 02:21
188,188,Ginir,7.1333,40.7,20.42,19,2,4.72,ET,02/04/21 02:21
189,189,Hasaki,35.7333,140.8333,11.0,46,20,5.66,JP,02/04/21 02:21
190,190,Pisco,-13.7,-76.2167,21.0,83,0,2.06,PE,02/04/21 02:21
191,191,Pokhara,28.2333,83.9833,23.11,20,0,2.96,NP,02/04/21 02:21
192,192,Āsosa,10.0667,34.5333,31.08,15,0,1.05,ET,02/04/21 02:21
193,193,Torbay,47.6666,-52.7314,10.0,100,90,10.29,CA,02/04/21 02:21
194,194,Xining,36.6167,101.7667,1.51,53,100,0.72,CN,02/04/21 02:20
195,195,Morondava,-20.2833,44.2833,30.68,72,0,3.9,MG,02/04/21 02:21
196,196,Thinadhoo,0.5333,72.9333,28.23,75,38,4.22,MV,02/04/21 02:21
197,197,Wewak,-3.5534,143.6268,28.75,72,100,5.26,PG,02/04/21 02:21
198,198,Narsaq,60.9167,-46.05,-10.0,37,40,0.51,GL,02/04/21 02:21
199,199,Peniche,39.3558,-9.3811,12.22,88,100,0.89,PT,02/04/21 02:21
200,200,Nuuk,64.1835,-51.7216,-12.0,56,0,3.6,GL,02/04/21 02:21
201,201,Nueva Florida,-6.9526,-76.613,21.97,94,100,0.4,PE,02/04/21 02:21
202,202,Hong Kong,22.2855,114.1577,23.0,49,0,3.6,HK,02/04/21 02:18
203,203,Faanui,-16.4833,-151.75,27.38,71,95,4.72,PF,02/04/21 02:21
204,204,Upernavik,72.7868,-56.1549,-26.07,71,0,1.68,GL,02/04/21 02:21
205,205,Bairiki Village,1.3292,172.9752,27.0,83,75,5.66,KI,02/04/21 02:21
206,206,Westport,41.1415,-73.3579,-1.0,64,90,3.6,US,02/04/21 02:21
207,207,Tombouctou,20.0,-3.0,18.98,23,0,3.68,ML,02/04/21 02:21
208,208,Pevek,69.7008,170.3133,-23.75,79,0,5.69,RU,02/04/21 02:21
209,209,Port Elizabeth,-33.918,25.5701,24.0,69,40,3.09,ZA,02/04/21 02:21
210,210,Alghero,40.5589,8.3181,8.0,93,0,1.03,IT,02/04/21 02:19
211,211,Joshīmath,30.5667,79.5667,10.48,38,100,3.39,IN,02/04/21 02:21
212,212,Nizhniy Baskunchak,48.2198,46.8311,6.6,85,100,5.63,RU,02/04/21 02:21
213,213,Provideniya,64.3833,-173.3,-22.88,84,36,7.79,RU,02/04/21 02:21
214,214,Kempsey,-31.0833,152.8333,26.11,68,9,4.02,AU,02/04/21 02:21
215,215,Inta,66.0317,60.1659,-16.13,94,100,3.32,RU,02/04/21 02:21
216,216,Bluff,-46.6,168.3333,12.97,65,0,9.84,NZ,02/04/21 02:21
217,217,Nagato,34.3833,131.2,11.67,43,20,7.2,JP,02/04/21 02:21
218,218,Caraşova,45.1986,21.87,9.0,87,75,2.57,RO,02/04/21 02:21
219,219,Piet Retief,-27.0071,30.8132,23.03,66,45,1.79,ZA,02/04/21 02:21
220,220,Itoman,26.1247,127.6694,22.0,60,20,6.17,JP,02/04/21 02:21
221,221,Kabo,7.6994,18.629,26.17,17,0,2.08,CF,02/04/21 02:21
222,222,Muisne,0.6,-80.0333,25.37,89,100,1.8,EC,02/04/21 02:21
223,223,Kenai,60.5544,-151.2583,-8.89,86,90,3.09,US,02/04/21 02:21
224,224,Arlit,18.7369,7.3853,16.96,29,52,1.49,NE,02/04/21 02:21
225,225,Port Blair,11.6667,92.75,30.0,70,20,4.63,IN,02/04/21 02:19
226,226,Weiser,44.251,-116.9693,1.0,75,1,4.63,US,02/04/21 02:21
227,227,San Patricio,28.017,-97.5169,18.33,94,1,5.66,US,02/04/21 02:21
228,228,Juneau,58.3019,-134.4197,-3.0,93,90,1.11,US,02/04/21 02:21
229,229,Dharmavaram,14.4333,77.7167,29.51,23,2,4.49,IN,02/04/21 02:21
230,230,Yaya,56.206,86.44,-9.57,95,100,5.06,RU,02/04/21 02:21
231,231,Kavieng,-2.5744,150.7967,27.63,74,100,1.69,PG,02/04/21 02:21
232,232,Edd,13.9297,41.6925,29.63,30,0,5.78,ER,02/04/21 02:21
233,233,Pochutla,15.7432,-96.4661,21.3,80,0,1.32,MX,02/04/21 02:21
234,234,Broome,42.2506,-75.833,-2.22,68,90,6.17,US,02/04/21 02:21
235,235,Karwar,14.8,74.1333,30.81,39,0,2.38,IN,02/04/21 02:21
236,236,Zhalantun,48.0,122.7167,-17.59,85,0,1.95,CN,02/04/21 02:21
237,237,Xaxim,-26.9617,-52.5347,19.31,100,100,1.71,BR,02/04/21 02:21
238,238,Uyuni,-20.4597,-66.825,10.18,67,100,4.35,BO,02/04/21 02:21
239,239,Finschhafen,-6.6024,147.8681,29.48,76,82,5.33,PG,02/04/21 02:21
240,240,Chardara,41.2547,67.9692,11.53,59,84,3.73,KZ,02/04/21 02:21
241,241,Pidhaytsi,49.2685,25.1334,10.0,62,75,7.0,UA,02/04/21 02:21
242,242,Nikolskoye,59.7035,30.7861,-11.67,85,75,7.0,RU,02/04/21 02:21
243,243,Necochea,-38.5473,-58.7368,13.99,82,0,1.59,AR,02/04/21 02:21
244,244,Bethel,41.3712,-73.414,-2.0,64,75,2.06,US,02/04/21 02:21
245,245,San Andrés,12.5847,-81.7006,26.0,69,75,4.63,CO,02/04/21 02:21
246,246,Navsari,20.9524,72.9324,30.0,32,13,4.12,IN,02/04/21 02:20
247,247,Luang Prabang,19.8856,102.1347,30.0,39,20,1.03,LA,02/04/21 02:21
248,248,Rosario,-32.9468,-60.6393,18.33,88,0,3.6,AR,02/04/21 02:19
249,249,Saskylakh,71.9167,114.0833,-39.15,76,60,2.47,RU,02/04/21 02:21
250,250,Ariquemes,-9.9133,-63.0408,22.98,96,100,0.25,BR,02/04/21 02:21
251,251,Vestmannaeyjar,63.4427,-20.2734,3.0,81,75,13.89,IS,02/04/21 02:21
252,252,Dikson,73.5069,80.5464,-24.34,91,100,6.05,RU,02/04/21 02:21
253,253,Bereda,43.2686,-7.5406,7.22,95,93,1.79,ES,02/04/21 02:21
254,254,Innisfail,-17.5333,146.0333,27.96,75,88,2.81,AU,02/04/21 02:21
255,255,Cabedelo,-6.9811,-34.8339,24.0,88,40,3.86,BR,02/04/21 02:21
256,256,Asău,46.4333,26.4,8.0,93,75,3.6,RO,02/04/21 02:21
257,257,Shihezi,44.3,86.0333,-3.21,97,100,2.08,CN,02/04/21 02:21
258,258,Flinders,-34.5833,150.8552,24.44,81,100,4.47,AU,02/04/21 02:21
259,259,Faranah,10.0404,-10.7434,16.97,82,0,1.62,GN,02/04/21 02:21
260,260,Umm Kaddadah,13.6017,26.6876,22.03,20,5,10.9,SD,02/04/21 02:21
261,261,Dzaoudzi,-12.7887,45.2699,31.0,62,0,2.06,YT,02/04/21 02:21
262,262,Aksay,47.26,39.87,7.0,100,40,3.0,RU,02/04/21 02:21
263,263,Port Hardy,50.6996,-127.4199,5.0,100,90,1.54,CA,02/04/21 02:21
264,264,Rocha,-34.4833,-54.3333,18.9,93,100,6.14,UY,02/04/21 02:21
265,265,Half Moon Bay,37.4636,-122.4286,9.0,81,1,1.54,US,02/04/21 02:21
266,266,Ambilobe,-13.2,49.05,31.54,63,43,1.15,MG,02/04/21 02:21
267,267,Dicabisagan,17.0818,122.4157,23.31,84,100,4.04,PH,02/04/21 02:21
268,268,Iwamizawa,43.2003,141.7597,-6.67,68,75,4.63,JP,02/04/21 02:21
269,269,Cullera,39.1667,-0.25,12.22,74,100,0.77,ES,02/04/21 02:21
270,270,Mayo,38.8876,-76.5119,1.0,51,1,3.6,US,02/04/21 02:21
271,271,El Salvador,13.8333,-88.9167,22.0,64,0,3.09,SV,02/04/21 02:21
272,272,Solnechnyy,50.7214,136.6319,-25.6,84,74,2.32,RU,02/04/21 02:21
273,273,Vila do Maio,15.1333,-23.2167,21.0,78,0,7.2,CV,02/04/21 02:21
274,274,Wau,7.7029,27.9953,34.76,17,0,1.19,SS,02/04/21 02:21
275,275,Encinitas,33.037,-117.292,11.67,87,75,1.19,US,02/04/21 02:17
276,276,Basco,20.4487,121.9702,21.83,76,16,11.87,PH,02/04/21 02:21
277,277,Dunedin,-45.8742,170.5036,12.22,63,0,2.24,NZ,02/04/21 02:21
278,278,Gamba,-2.65,10.0,26.95,85,100,1.83,GA,02/04/21 02:21
279,279,Krasnoural'sk,58.3638,60.0407,-10.7,93,100,2.01,RU,02/04/21 02:21
280,280,Sørland,67.667,12.6934,2.0,69,20,11.32,NO,02/04/21 02:21
281,281,Villa del Rosario,7.8339,-72.4742,21.58,69,67,1.1,CO,02/04/21 02:21
282,282,Crotone,39.0851,17.1178,11.0,93,0,1.03,IT,02/04/21 02:21
283,283,City of San Pedro,14.35,121.0167,31.0,51,40,4.63,PH,02/04/21 02:21
284,284,Falun,60.6036,15.626,-12.0,85,90,5.14,SE,02/04/21 02:21
285,285,Baharly,38.4362,57.4316,15.2,32,100,0.98,TM,02/04/21 02:21
286,286,Palauig,15.435,119.9045,28.55,60,0,2.95,PH,02/04/21 02:21
287,287,Guarabira,-6.8547,-35.49,24.0,88,40,1.88,BR,02/04/21 02:21
288,288,La Ronge,55.1001,-105.2842,-17.0,78,98,3.09,CA,02/04/21 02:21
289,289,Mahon,39.8885,4.2658,12.0,94,90,1.03,ES,02/04/21 02:21
290,290,Bandarbeyla,9.4942,50.8122,24.69,59,32,6.86,SO,02/04/21 02:21
291,291,Kumul,42.8,93.45,3.73,62,88,1.9,CN,02/04/21 02:21
292,292,Zhangjiakou,40.81,114.8794,1.99,55,0,1.01,CN,02/04/21 02:21
293,293,Vetluzhskiy,58.3902,45.4654,-4.97,98,100,3.34,RU,02/04/21 02:21
294,294,Yatou,37.15,122.3833,3.44,69,100,6.62,CN,02/04/21 02:21
295,295,Camaná,-16.6228,-72.7111,21.15,80,100,2.68,PE,02/04/21 02:22
296,296,Oranjemund,-28.55,16.4333,18.39,76,34,4.53,NA,02/04/21 02:22
297,297,Makurdi,7.7411,8.5121,24.05,17,74,1.36,NG,02/04/21 02:22
298,298,Labuhan,-6.8844,112.2051,28.65,77,66,8.52,ID,02/04/21 02:22
299,299,Cecina,43.3128,10.524,13.33,10,79,2.05,IT,02/04/21 02:22
300,300,Likasi,-10.9814,26.7333,21.8,84,48,0.88,CD,02/04/21 02:22
301,301,Kalmunai,7.4167,81.8167,27.14,73,18,6.72,LK,02/04/21 02:22
302,302,Diamantino,-14.4086,-56.4461,22.16,90,46,0.86,BR,02/04/21 02:22
303,303,Pacific Grove,36.6177,-121.9166,9.44,93,90,1.54,US,02/04/21 02:22
304,304,Sandwick,60.0,-1.25,1.0,55,20,3.6,GB,02/04/21 02:17
305,305,Senneterre,48.3835,-77.2328,-13.0,92,1,3.09,CA,02/04/21 02:22
306,306,Udachny,66.4167,112.4,-30.17,84,100,3.76,RU,02/04/21 02:22
307,307,Kimbe,-5.5502,150.1429,26.45,87,100,1.44,PG,02/04/21 02:22
308,308,São José da Coroa Grande,-8.8978,-35.1478,24.64,80,11,2.16,BR,02/04/21 02:22
309,309,Maţāy,28.419,30.7792,16.08,64,20,5.16,EG,02/04/21 02:22
310,310,Chernyshevskiy,63.0128,112.4714,-29.97,88,100,1.49,RU,02/04/21 02:22
311,311,Rubizhne,49.0123,38.3797,5.77,93,100,3.46,UA,02/04/21 02:22
312,312,Latur,18.4,76.5833,28.1,16,27,2.78,IN,02/04/21 02:19
313,313,Aleppo Governorate,36.25,37.5,12.0,57,56,7.15,SY,02/04/21 02:22
314,314,Santa Cruz de la Sierra,-17.8,-63.1667,22.0,83,75,5.14,BO,02/04/21 02:22
315,315,Tessalit,20.1986,1.0114,17.49,27,0,8.01,ML,02/04/21 02:22
316,316,Port Hedland,-20.3167,118.5667,32.0,62,1,7.2,AU,02/04/21 02:22
317,317,Outjo,-20.1167,16.15,24.05,49,34,2.57,NA,02/04/21 02:22
318,318,Henties Bay,-22.116,14.2845,18.1,89,100,2.62,NA,02/04/21 02:22
319,319,North Bend,43.4065,-124.2243,6.11,100,75,2.06,US,02/04/21 02:22
320,320,Lerwick,60.1545,-1.1494,1.0,55,20,3.6,GB,02/04/21 02:22
321,321,Kidal,18.4411,1.4078,17.11,27,0,6.82,ML,02/04/21 02:22
322,322,Kamaishi,39.2667,141.8833,-4.0,86,75,1.03,JP,02/04/21 02:22
323,323,São Gabriel da Cachoeira,-0.1303,-67.0892,22.7,99,100,0.13,BR,02/04/21 02:22
324,324,Fairbanks,64.8378,-147.7164,-20.56,77,90,2.57,US,02/04/21 02:22
325,325,Huazhou,21.6333,110.5833,25.33,44,0,6.55,CN,02/04/21 02:20
326,326,Padang,-0.9492,100.3543,32.0,66,40,3.09,ID,02/04/21 02:22
327,327,Slave Lake,55.2834,-114.769,-25.0,84,20,2.06,CA,02/04/21 02:22
328,328,Abnūb,27.2696,31.1511,10.0,62,0,6.69,EG,02/04/21 02:22
329,329,Sines Municipality,37.9562,-8.8698,11.11,95,100,1.34,PT,02/04/21 02:22
330,330,Nha Trang,12.25,109.1833,28.0,57,20,8.23,VN,02/04/21 02:22
331,331,Alekseyevka,50.6309,38.6903,2.39,97,93,3.82,RU,02/04/21 02:22
332,332,Semibratovo,57.3046,39.5369,-4.0,86,90,3.0,RU,02/04/21 02:22
333,333,Pianoro,44.393,11.3423,4.44,100,63,2.06,IT,02/04/21 02:22
334,334,Maneromango,-7.1988,38.7848,29.0,74,40,5.66,TZ,02/04/21 02:22
335,335,Haines Junction,60.7522,-137.5108,-31.0,69,92,0.51,CA,02/04/21 02:22
336,336,Andover,51.2083,-1.4825,4.0,100,90,0.51,GB,02/04/21 02:22
337,337,Paamiut,61.994,-49.6678,-12.3,73,0,4.36,GL,02/04/21 02:22
338,338,Gizo Government Station,-8.103,156.8419,26.87,82,100,5.95,SB,02/04/21 02:22
339,339,Souillac,-20.5167,57.5167,30.0,66,75,5.14,MU,02/04/21 02:22
340,340,Stephenville,32.2207,-98.2023,14.44,82,1,3.6,US,02/04/21 02:22
341,341,Nakamura,32.9833,132.9333,11.43,55,3,4.86,JP,02/04/21 02:22
342,342,Taltal,-25.4,-70.4833,17.52,79,58,1.46,CL,02/04/21 02:22
343,343,Saint Anthony,45.0205,-93.218,0.56,86,90,2.57,US,02/04/21 02:22
344,344,Richmond Hill,43.8711,-79.4372,-2.78,74,0,1.34,CA,02/04/21 02:22
345,345,Uwajima,33.2238,132.56,11.0,50,40,7.2,JP,02/04/21 02:22
346,346,Chicama,-7.8447,-79.1469,21.54,70,98,1.95,PE,02/04/21 02:22
347,347,Natá,8.3333,-80.5167,23.33,59,100,7.02,PA,02/04/21 02:22
348,348,Tutóia,-2.7619,-42.2744,25.64,83,0,4.97,BR,02/04/21 02:22
349,349,Mut,36.6439,33.4389,14.45,44,0,1.78,TR,02/04/21 02:22
350,350,Seymchan,62.8833,152.4333,-27.29,86,100,4.76,RU,02/04/21 02:22
351,351,Nioaque,-21.1353,-55.83,23.62,86,100,1.23,BR,02/04/21 02:22
352,352,Chase,50.8165,-119.6857,-2.0,86,100,1.03,CA,02/04/21 02:22
353,353,Vila,42.0304,-8.1588,7.22,95,51,1.64,PT,02/04/21 02:22
354,354,Bell Ville,-32.6259,-62.6887,13.33,97,0,0.45,AR,02/04/21 02:22
355,355,Jieshi,22.8134,115.8257,25.0,49,0,8.69,CN,02/04/21 02:22
356,356,Alta Floresta,-9.8756,-56.0861,21.48,96,63,0.18,BR,02/04/21 02:22
357,357,Khovd,48.0056,91.6419,-3.17,75,100,0.66,MN,02/04/21 02:22
358,358,Kungurtug,50.5994,97.5228,-4.01,90,100,1.2,RU,02/04/21 02:22
359,359,Gunjur,13.2019,-16.7339,17.0,82,0,3.89,GM,02/04/21 02:22
360,360,Mackay,-21.15,149.2,29.0,70,40,6.69,AU,02/04/21 02:22
361,361,Kahului,20.8947,-156.47,22.0,73,90,7.72,US,02/04/21 02:22
362,362,Kudahuvadhoo,2.6708,72.8944,27.95,76,90,5.73,MV,02/04/21 02:22
363,363,Chik,54.9928,82.4311,-8.0,73,0,2.0,RU,02/04/21 02:22
364,364,Wattegama,6.7989,81.4808,29.0,74,90,8.23,LK,02/04/21 02:22
365,365,Kologriv,58.8275,44.3178,-5.57,97,100,3.23,RU,02/04/21 02:22
366,366,Mayor Pablo Lagerenza,-19.9309,-60.7718,23.56,78,100,4.43,PY,02/04/21 02:22
367,367,Nizwá,22.9333,57.5333,24.82,19,0,2.4,OM,02/04/21 02:22
368,368,Igarka,67.4667,86.5833,-26.83,88,100,2.17,RU,02/04/21 02:22
369,369,Grand Gaube,-20.0064,57.6608,28.33,72,0,3.58,MU,02/04/21 02:22
370,370,Vila Franca do Campo,37.7167,-25.4333,10.0,71,40,8.23,PT,02/04/21 02:22
371,371,Palmer,42.1584,-72.3287,-1.0,59,90,4.63,US,02/04/21 02:22
372,372,Quimperlé,47.8667,-3.55,9.44,93,90,3.09,FR,02/04/21 02:22
373,373,Erzin,36.9559,36.2,14.44,63,80,5.36,TR,02/04/21 02:22
374,374,Kaitangata,-46.2817,169.8464,12.22,67,0,4.02,NZ,02/04/21 02:22
375,375,Turukhansk,65.8167,87.9833,-21.05,90,100,2.76,RU,02/04/21 02:22
376,376,Oytal,42.9057,73.2697,4.91,78,89,0.28,KZ,02/04/21 02:22
377,377,Jizan,17.3333,42.6667,27.0,74,20,6.69,SA,02/04/21 02:22
378,378,Warrenton,-28.114,24.8475,20.46,80,96,4.48,ZA,02/04/21 02:22
379,379,La Macarena,2.1837,-73.7849,22.3,96,86,0.83,CO,02/04/21 02:22
380,380,Agadez,19.75,10.25,12.38,41,0,3.97,NE,02/04/21 02:22
381,381,Zhuhai,22.2769,113.5678,27.22,64,0,3.6,CN,02/04/21 02:22
382,382,Arti,56.4234,58.5328,-7.11,96,97,2.92,RU,02/04/21 02:22
383,383,Nome,64.5011,-165.4064,-23.0,59,1,2.06,US,02/04/21 02:22
384,384,Yankton,42.8711,-97.3973,-3.0,93,90,8.75,US,02/04/21 02:22
385,385,Darhan,49.4867,105.9228,-3.53,92,100,2.46,MN,02/04/21 02:22
386,386,Ladyzhyn,48.685,29.2368,1.67,94,100,5.26,UA,02/04/21 02:22
387,387,Sfântu Gheorghe,45.8667,25.7833,7.78,95,100,0.89,RO,02/04/21 02:22
388,388,Santiago del Estero,-27.7951,-64.2615,19.48,85,0,2.19,AR,02/04/21 02:22
389,389,‘Āhuimanu,21.4447,-157.8378,22.0,78,75,5.14,US,02/04/21 02:22
390,390,Shetpe,44.1667,52.1167,8.37,68,84,2.92,KZ,02/04/21 02:22
391,391,Poum,-20.2333,164.0167,26.94,81,4,8.6,NC,02/04/21 02:21
392,392,Pāsighāt,28.0667,95.3333,26.79,26,22,1.86,IN,02/04/21 02:22
393,393,Kavaratti,10.5669,72.642,27.84,62,3,3.17,IN,02/04/21 02:22
394,394,Sur,22.5667,59.5289,23.48,59,0,3.63,OM,02/04/21 02:22
395,395,Broken Hill,-31.95,141.4333,33.0,12,100,8.23,AU,02/04/21 02:22
396,396,Magadan,59.5667,150.8,-17.64,82,100,5.95,RU,02/04/21 02:22
397,397,San Cristobal,7.7669,-72.225,18.81,67,25,0.64,VE,02/04/21 02:22
398,398,São João da Barra,-21.6403,-41.0511,24.04,88,0,6.05,BR,02/04/21 02:22
399,399,Bathsheba,13.2167,-59.5167,26.0,65,40,10.29,BB,02/04/21 02:22
400,400,Riberalta,-10.9833,-66.1,23.16,93,99,0.58,BO,02/04/21 02:22
401,401,Omsukchan,62.5333,155.8,-23.55,88,100,5.64,RU,02/04/21 02:22
402,402,Miguel Calmon,-11.4289,-40.595,20.83,91,93,1.74,BR,02/04/21 02:22
403,403,Ostrovnoy,68.0531,39.5131,-11.29,94,100,5.78,RU,02/04/21 02:22
404,404,Batticaloa,7.7102,81.6924,26.79,72,13,6.08,LK,02/04/21 02:19
405,405,Guangyuan,32.442,105.823,3.33,85,95,2.89,CN,02/04/21 02:22
406,406,Buchanan,5.8808,-10.0467,24.0,94,75,2.21,LR,02/04/21 02:22
407,407,Aksu,41.1231,80.2644,5.56,51,0,0.25,CN,02/04/21 02:22
408,408,Matagami,49.7502,-77.6328,-19.0,92,1,2.57,CA,02/04/21 02:22
409,409,Belogorsk,50.9158,128.4611,-23.03,86,0,1.45,RU,02/04/21 02:22
410,410,Jiwani,25.05,61.7417,21.84,24,0,4.45,PK,02/04/21 02:22
411,411,College,64.8569,-147.8028,-21.0,77,90,1.54,US,02/04/21 02:22
412,412,Tūkrah,32.5341,20.5791,15.61,76,28,2.84,LY,02/04/21 02:22
413,413,Phonhong,18.5007,102.4166,29.0,42,20,2.06,LA,02/04/21 02:22
414,414,Katsuura,35.1333,140.3,12.0,40,20,8.75,JP,02/04/21 02:22
415,415,Luganville,-15.5333,167.1667,27.74,78,100,0.42,VU,02/04/21 02:22
416,416,Petropavlovsk-Kamchatskiy,53.0452,158.6483,-10.0,41,40,6.0,RU,02/04/21 02:20
417,417,Kathu,7.9178,98.3332,31.67,55,40,5.66,TH,02/04/21 02:22
418,418,Aripuanã,-9.1667,-60.6333,22.84,96,100,0.45,BR,02/04/21 02:22
419,419,Preston,53.7667,-2.7167,5.0,100,20,3.6,GB,02/04/21 02:22
420,420,Sabha,27.0377,14.4283,11.06,55,0,2.62,LY,02/04/21 02:22
421,421,Jalor,25.35,72.6167,26.93,16,0,1.39,IN,02/04/21 02:22
422,422,Ulladulla,-35.35,150.4667,24.44,73,20,6.17,AU,02/04/21 02:22
423,423,Salalah,17.0151,54.0924,27.0,22,0,1.03,OM,02/04/21 02:22
424,424,Yar-Sale,66.8333,70.8333,-21.81,90,98,4.57,RU,02/04/21 02:22
425,425,Daitari,21.1,85.75,27.95,15,0,3.57,IN,02/04/21 02:19
426,426,Dakoro,14.5106,6.765,17.57,28,11,6.21,NE,02/04/21 02:22
427,427,Mbaïki,3.8678,17.9892,26.83,42,43,1.19,CF,02/04/21 02:22
428,428,San Miguel de Tucumán,-26.8241,-65.2226,20.0,83,0,4.12,AR,02/04/21 02:22
429,429,Sokolniki,50.638,21.8065,6.67,94,99,2.24,PL,02/04/21 02:22
430,430,Palu,-0.8917,119.8707,28.92,65,100,1.8,ID,02/04/21 02:22
431,431,Chumikan,54.7183,135.315,-26.68,78,0,14.0,RU,02/04/21 02:22
432,432,Hessisch Oldendorf,52.1667,9.25,7.0,93,75,5.14,DE,02/04/21 02:22
433,433,Bilibino,68.0546,166.4372,-25.08,71,1,4.93,RU,02/04/21 02:22
434,434,Makkah al Mukarramah,21.4267,39.8261,29.24,40,0,4.97,SA,02/04/21 02:21
435,435,Keti Bandar,24.1447,67.4497,26.69,19,0,3.66,PK,02/04/21 02:22
436,436,Lokosovo,61.1333,74.8167,-12.92,95,100,4.67,RU,02/04/21 02:22
437,437,Belaya Gora,68.5333,146.4167,-27.93,88,100,1.31,RU,02/04/21 02:22
438,438,Zhigansk,66.7697,123.3711,-41.56,74,0,2.13,RU,02/04/21 02:22
439,439,Cherskiy,68.75,161.3,-19.21,67,0,3.73,RU,02/04/21 02:22
440,440,Esperance,-33.8667,121.9,17.0,48,90,8.75,AU,02/04/21 02:22
441,441,Tiksi,71.6872,128.8694,-32.61,86,75,1.83,RU,02/04/21 02:22
442,442,Kharagpur,22.3333,87.3333,27.46,19,0,2.74,IN,02/04/21 02:22
443,443,Port-Gentil,-0.7193,8.7815,27.0,89,20,1.03,GA,02/04/21 02:22
444,444,Atambua,-9.1061,124.8925,23.66,93,100,3.96,ID,02/04/21 02:19
445,445,Båtsfjord,70.6345,29.7185,-1.0,93,75,9.26,NO,02/04/21 02:22
446,446,Petatlán,17.5167,-101.2667,21.58,86,0,0.96,MX,02/04/21 02:22
447,447,Erenhot,43.6475,111.9767,-2.73,87,0,8.33,CN,02/04/21 02:22
448,448,São Filipe,14.8961,-24.4956,22.02,78,100,5.01,CV,02/04/21 02:22
449,449,Caravelas,-17.7125,-39.2481,23.38,90,100,1.74,BR,02/04/21 02:22
450,450,Kirovsk,48.6375,38.6428,5.91,93,100,4.01,UA,02/04/21 02:22
451,451,Chapais,49.7834,-74.8492,-12.0,72,1,1.03,CA,02/04/21 02:22
452,452,Singkang,2.1006,102.7994,30.0,65,20,4.12,MY,02/04/21 02:22
453,453,Yukamenskoye,57.8865,52.2416,-9.21,97,100,4.41,RU,02/04/21 02:22
454,454,Margate,51.3813,1.3862,6.11,90,100,0.45,GB,02/04/21 02:22
455,455,Alyangula,-13.8483,136.4192,28.0,89,75,2.57,AU,02/04/21 02:22
456,456,Anchorage,61.2181,-149.9003,-9.44,79,90,2.57,US,02/04/21 02:10
457,457,Barinitas,8.7622,-70.4111,22.87,54,100,2.24,VE,02/04/21 02:22
458,458,Biloela,-24.4167,150.5,29.72,48,40,7.03,AU,02/04/21 02:22
459,459,Palmares do Sul,-30.2578,-50.5097,23.88,88,90,4.27,BR,02/04/21 02:22
460,460,Pozo Colorado,-23.4923,-58.7972,22.08,88,100,4.11,PY,02/04/21 02:22
461,461,Koumac,-20.5667,164.2833,26.49,83,61,6.0,NC,02/04/21 02:22
462,462,Codrington,-38.2667,141.9667,22.16,45,100,10.01,AU,02/04/21 02:22
463,463,Akureyri,65.6835,-18.0878,-8.0,73,0,1.54,IS,02/04/21 02:22
464,464,Kirakira,-10.4544,161.9205,26.7,81,100,5.8,SB,02/04/21 02:22
465,465,Mahon,39.8885,4.2658,12.0,94,90,1.03,ES,02/04/21 02:21
466,466,Coruripe,-10.1256,-36.1756,24.16,85,100,3.46,BR,02/04/21 02:22
467,467,Mount Gambier,-37.8333,140.7667,18.0,88,90,3.09,AU,02/04/21 02:22
468,468,Beloha,-25.1667,45.05,34.44,32,18,2.91,MG,02/04/21 02:22
469,469,Ust'-Koksa,50.2696,85.6108,-1.16,90,100,2.68,RU,02/04/21 02:22
470,470,Champerico,14.3,-91.9167,19.44,95,9,1.39,GT,02/04/21 02:22
471,471,Moberly,39.4184,-92.4382,6.11,61,75,6.17,US,02/04/21 02:19
472,472,Havre-St-Pierre,50.2334,-63.5986,-2.0,86,90,5.14,CA,02/04/21 02:22
473,473,Kisangani,0.5167,25.2,27.18,69,86,2.5,CD,02/04/21 02:22
474,474,Alofi,-19.0595,-169.9187,25.0,94,100,2.06,NU,02/04/21 02:22
475,475,Rassvet,46.8333,40.75,9.14,77,57,4.7,RU,02/04/21 02:22
476,476,Kalemie,-5.9475,29.1947,24.34,77,36,0.66,CD,02/04/21 02:22
477,477,Klyuchi,52.2667,79.1667,-1.47,99,100,2.85,RU,02/04/21 02:22
478,478,Cabo San Lucas,22.8909,-109.9124,16.67,72,1,2.06,MX,02/04/21 02:22
479,479,Bud,39.447,-86.1758,-2.78,91,100,3.12,US,02/04/21 02:22
480,480,Laguna,38.421,-121.4238,8.89,87,1,4.63,US,02/04/21 02:22
481,481,Camacha,33.0833,-16.3333,12.0,82,75,4.63,PT,02/04/21 02:22
482,482,Puerto Baquerizo Moreno,-0.9,-89.6,24.35,86,100,4.41,EC,02/04/21 02:22
483,483,Waddān,29.1614,16.139,11.11,75,0,0.59,LY,02/04/21 02:22
484,484,Manyana,-23.4,21.7167,22.57,79,100,4.55,BW,02/04/21 02:22
485,485,Tsimmerbude,54.675,20.1347,-2.78,86,0,7.0,RU,02/04/21 02:22
486,486,Apac,1.9756,32.5386,28.56,39,64,2.74,UG,02/04/21 02:22
487,487,Al Bardīyah,31.7561,25.0865,15.41,79,0,6.67,LY,02/04/21 02:22
488,488,Kozhevnikovo,56.2589,83.9714,-8.33,84,73,2.68,RU,02/04/21 02:22
489,489,Marfino,55.7028,37.3822,-1.0,86,90,2.0,RU,02/04/21 02:22
490,490,Dovolnoye,54.4958,79.6671,-10.78,94,3,4.25,RU,02/04/21 02:22
491,491,Fort Nelson,58.8053,-122.7002,-23.0,77,90,4.12,CA,02/04/21 02:22
492,492,Anloga,5.7947,0.8973,28.0,89,75,4.45,GH,02/04/21 02:22
493,493,Bowen,-20.0167,148.2333,29.0,70,40,5.66,AU,02/04/21 02:22
494,494,Lorengau,-2.0226,147.2712,28.08,73,100,2.76,PG,02/04/21 02:22
495,495,Huarmey,-10.0681,-78.1522,20.66,76,99,1.59,PE,02/04/21 02:22
496,496,Gushikawa,26.3544,127.8686,22.0,49,75,4.63,JP,02/04/21 02:22
497,497,Kysyl-Syr,63.8986,122.7617,-37.14,80,82,3.7,RU,02/04/21 02:22
498,498,Taoudenni,22.6783,-3.9836,17.06,27,79,2.38,ML,02/04/21 02:21
499,499,Rio de Janeiro,-22.9028,-43.2075,25.56,78,0,3.09,BR,02/04/21 02:19
500,500,Cockburn Town,21.4612,-71.1419,22.91,60,62,3.79,TC,02/04/21 02:22
501,501,Meulaboh,4.1363,96.1285,30.57,61,100,3.18,ID,02/04/21 02:22
502,502,Mirny,62.5353,113.9611,-28.58,87,100,1.91,RU,02/04/21 02:22
503,503,Shimoda,34.6667,138.95,10.0,50,20,9.77,JP,02/04/21 02:22
504,504,Skjervøy,70.0311,20.9714,0.0,64,20,6.17,NO,02/04/21 02:22
505,505,Lagoa,39.05,-27.9833,12.36,64,100,14.71,PT,02/04/21 02:22
506,506,Vao,-22.6667,167.4833,25.95,88,7,7.46,NC,02/04/21 02:22
507,507,Tuatapere,-46.1333,167.6833,17.19,56,6,3.64,NZ,02/04/21 02:22
508,508,Nainpur,22.4333,80.1167,29.68,13,0,3.12,IN,02/04/21 02:22
509,509,Ambanja,-13.6833,48.45,31.0,60,40,1.03,MG,02/04/21 02:22
510,510,Sun Valley,39.5963,-119.776,-0.56,74,90,3.09,US,02/04/21 02:22
511,511,Kendari,-3.945,122.4989,26.83,78,100,1.04,ID,02/04/21 02:22
512,512,Mendi,-6.1761,143.6513,17.48,93,100,1.33,PG,02/04/21 02:22
513,513,Manadhoo,5.7667,73.3833,27.78,77,100,7.69,MV,02/04/21 02:21
514,514,Biak,-0.9131,122.8766,27.12,72,100,1.61,ID,02/04/21 02:22
515,515,Khon Kaen,16.5,102.0833,31.68,26,0,3.11,TH,02/04/21 02:21
516,516,Shulan,44.4167,126.95,-15.19,88,100,3.33,CN,02/04/21 02:19
517,517,Tucupita,9.0622,-62.051,22.24,98,100,1.19,VE,02/04/21 02:22
518,518,Matara,5.9485,80.5353,31.93,51,5,3.48,LK,02/04/21 02:22
519,519,Amoy,24.4798,118.0819,23.0,49,0,5.0,CN,02/04/21 02:21
520,520,Mossamedes,-15.1961,12.1522,22.76,66,79,2.81,AO,02/04/21 02:22
521,521,Zafra,38.4167,-6.4167,10.0,96,100,3.13,ES,02/04/21 02:22
522,522,Iqaluit,63.7506,-68.5145,-18.89,78,90,2.06,CA,02/04/21 02:22
523,523,Yantal',56.8471,105.2542,-10.67,92,100,4.5,RU,02/04/21 02:22
524,524,Atar,20.5169,-13.0499,16.73,27,100,0.74,MR,02/04/21 02:22
525,525,Ponta do Sol,32.6667,-17.1,10.56,70,83,2.24,PT,02/04/21 02:22
526,526,Carnarvon,-24.8667,113.6333,30.0,100,90,12.35,AU,02/04/21 02:23
527,527,Nizhniy Tsasuchey,50.5167,115.1333,-11.77,94,100,2.96,RU,02/04/21 02:23
528,528,Majene,-3.5403,118.9707,30.16,63,100,4.58,ID,02/04/21 02:23
529,529,Lüderitz,-26.6481,15.1594,21.38,54,0,5.46,NA,02/04/21 02:23
530,530,Mehamn,71.0357,27.8492,-1.0,80,75,7.72,NO,02/04/21 02:23
531,531,Vacaria,-28.5122,-50.9339,22.78,92,8,4.0,BR,02/04/21 02:20
532,532,Saint-Augustin,51.226,-58.6502,1.83,97,100,1.08,CA,02/04/21 02:23
533,533,Mouzourás,35.5333,24.15,12.0,87,20,3.6,GR,02/04/21 02:23
534,534,Suez,29.9737,32.5263,16.32,61,29,4.46,EG,02/04/21 02:23
535,535,Shatrovo,56.5167,64.6333,-12.2,95,80,2.06,RU,02/04/21 02:23
536,536,Plettenberg Bay,-34.0527,23.3716,21.03,74,81,0.74,ZA,02/04/21 02:23
537,537,Canguaretama,-6.38,-35.1289,25.0,83,40,2.06,BR,02/04/21 02:23
538,538,Saint-François,46.4154,3.9054,3.89,100,0,1.54,FR,02/04/21 02:23
539,539,De Aar,-30.6497,24.0123,23.0,68,40,3.6,ZA,02/04/21 02:18
540,540,Mandalgovi,45.7625,106.2708,-4.52,79,0,8.49,MN,02/04/21 02:23
541,541,Lavrentiya,65.5833,-171.0,-27.76,84,0,5.82,RU,02/04/21 02:23
542,542,Baykit,61.67,96.37,-18.16,88,100,0.93,RU,02/04/21 02:23
543,543,Hofn,64.2539,-15.2082,0.05,93,100,6.3,IS,02/04/21 02:23
544,544,Kapoeta,4.7717,33.5903,33.12,19,0,10.68,SS,02/04/21 02:23
545,545,Darasun,51.6667,114.0,-16.0,72,40,1.0,RU,02/04/21 02:23
546,546,Charcas,23.1333,-101.1167,13.7,51,62,0.89,MX,02/04/21 02:23
547,547,Bagdarin,54.4333,113.6,-20.02,84,77,1.32,RU,02/04/21 02:23
548,548,Ixtapa,20.7,-105.2,19.44,92,0,0.89,MX,02/04/21 02:23
549,549,Olafsvik,64.8945,-23.7142,2.76,80,100,14.35,IS,02/04/21 02:23
550,550,Detchino,54.8092,36.3075,-1.0,93,90,1.0,RU,02/04/21 02:23
551,551,Salina,38.8403,-97.6114,10.0,76,40,6.17,US,02/04/21 02:21
552,552,Leuven,50.8796,4.7009,5.0,93,0,3.6,BE,02/04/21 02:23
553,553,Buraidah,26.326,43.975,20.0,40,40,3.09,SA,02/04/21 02:23
554,554,Aginskoye,51.1,114.53,-12.04,93,100,2.57,RU,02/04/21 02:23
555,555,Dudinka,69.4058,86.1778,-30.61,86,98,3.71,RU,02/04/21 02:23
556,556,Zhangye,38.9342,100.4517,2.08,55,100,3.01,CN,02/04/21 02:23
557,557,St. George's,12.0564,-61.7485,26.0,83,40,8.23,GD,02/04/21 02:23
558,558,Guaratinga,-16.5667,-39.5667,23.0,88,20,1.54,BR,02/04/21 02:23
559,559,Arman',59.7,150.1667,-18.22,81,61,9.06,RU,02/04/21 02:23
560,560,San Martín,-33.081,-68.4681,18.0,63,0,1.29,AR,02/04/21 02:23
561,561,Sechura,-5.5569,-80.8222,23.23,69,97,3.46,PE,02/04/21 02:23
562,562,Panabá,21.2833,-88.2667,15.41,89,0,2.32,MX,02/04/21 02:23
563,563,Egvekinot,66.3167,-179.1667,-34.3,82,13,7.12,RU,02/04/21 02:23
